No,시설명,대표자,연락처,주소,지도자,시설면적,운동종류,장애종류,강의명,시간,요일,강사명,기간,차량지원,장애 지원시설,수강료,경도,위도,상태
1,(사)신나는사상스포츠클럽,유재우,02-319-7330,부산광역시 사상구 가야대로 196번길 51 다누림센터,1명,1 ㎡,배드민턴,"지체, 시각, 청각/언어, 지적/자폐, 뇌병변, 기타",[12월] 생활체육,14:00 ~ 14:50,"화,목",소대승,2020.12.01 ~ 2020.12.10,미지원,"장애인 화장실,장애인용 엘리베이터,장애인전용 주차구역","80,000",128.994874513215,35.1474463970734,정좌표
2,(주)꿈자라다,김병식,031-719-1441,경기도 성남시 분당구 야탑로 32 삼부빌딜 4층(야탑동),11명,409 ㎡,기타종목,"지적/자폐, 기타",[12월] 특수체육,13:00 ~ 20:00,"월,화,수,목,금,토",류정국,2020.12.01 ~ 2020.12.10,미지원,"장애인 화장실,장애인용 엘리베이터,장애인전용 주차구역,주출입구 단차없음","80,000",127.122608635986,37.4087831270947,정좌표
3,(주)디에스그룹 달서복싱체육관 대곡점 ,정희준,02-244-7362,대구광역시 달성군 화원읍 비슬로 2707-1 4층 달서복싱,3명,3362 ㎡,복싱,"지체, 시각, 청각/언어, 지적/자폐, 기타",[12월] 신나는 운동 복싱교실 헬스,11:00 ~ 11:00,"월,화,수,목,금","정희준,,손예지",2020.12.01 ~ 2020.12.10,미지원,"장애인전용 주차구역,주출입구 단차없음,시각장애인 편의서비스,청각장애인 편의서비스","80,000",128.511287488876,35.8091927452404,정좌표
4,(주)스타칼리휘트니스,현보미,02-3141-4477,서울특별시 서대문구 연희로 82 브라운스톤 지하1층 스타칼리휘트니스(연희동),2명,1705 ㎡,헬스,기타,[12월] 헬스,06:00 ~ 23:55,"월,화,수,목,금,토,일",이원준,2020.12.01 ~ 2020.12.10,미지원,,"80,000",126.930271993972,37.5652127481956,정좌표
5,(주)애플스포츠,최장용,043-854-1919,"충청북도 충주시 삼원로 75 1층,2층(봉방동)",2명,360 ㎡,롤러인라인,"청각/언어, 지적/자폐",[12월] 즐거운 인라인교실 ,10:00 ~ 19:00,"월,화,수,목,금,토",애플쌤,2020.12.01 ~ 2020.12.10,지원,,"80,000",127.920622691433,36.9736034050102,정좌표
6,(주)하루하루움직임연구소,정고운,051-746-1152,부산광역시 해운대구 마린시티2로 2 1907호(우동),3명,76 ㎡,헬스,"지체, 청각/언어, 지적/자폐, 뇌병변, 기타",[12월] 어댑핏 Re:피트니스,13:00 ~ 14:00,"월,수,금","정고운,,이봄시내,,장지원",2020.12.01 ~ 2020.12.10,미지원,"장애인 화장실,장애인용 엘리베이터,장애인전용 주차구역,주출입구 단차없음","100,000",129.144242024113,35.1593247855869,정좌표
7,(주)하루하루움직임연구소,정고운,051-746-1152,부산광역시 해운대구 마린시티2로 2 1907호(우동),3명,76 ㎡,필라테스,"지체, 시각, 청각/언어, 지적/자폐, 뇌병변, 기타",[12월] 어댑핏 휠체어필라테스,13:00 ~ 14:00,"화,목","정고운,,장지원,,이봄시내",2020.12.01 ~ 2020.12.10,미지원,"장애인 화장실,장애인용 엘리베이터,장애인전용 주차구역,주출입구 단차없음","100,000",129.144242024113,35.1593247855869,정좌표
8,(주)한국스포츠산업개발원,최미옥,053-622-0095,대구광역시 달서구 학산로 17 지하1층(월성동),7명,1320 ㎡,헬스,"지체, 시각, 청각/언어, 지적/자폐, 뇌병변, 기타",[12월] GX,09:00 ~ 21:00,"월,화,수,목,금,토",이주석,2020.12.01 ~ 2020.12.10,미지원,"장애인 화장실,장애인용 엘리베이터,장애인전용 주차구역,주출입구 단차없음,휠체어 대여,시각장애인 편의서비스,청각장애인 편의서비스","80,000",128.531102952308,35.8275304131386,정좌표
9,(주)한국스포츠산업개발원,최미옥,053-622-0095,대구광역시 달서구 학산로 17 지하1층(월성동),7명,1320 ㎡,복싱,"지체, 시각, 청각/언어, 지적/자폐, 뇌병변, 기타",[12월] 뮤직복싱,09:00 ~ 21:00,"월,화,수,목,금,토",장유수,2020.12.01 ~ 2020.12.10,미지원,"장애인 화장실,장애인용 엘리베이터,장애인전용 주차구역,주출입구 단차없음,휠체어 대여,시각장애인 편의서비스,청각장애인 편의서비스","80,000",128.531102952308,35.8275304131386,정좌표
10,(주)한국스포츠산업개발원,최미옥,053-622-0095,대구광역시 달서구 학산로 17 지하1층(월성동),7명,1320 ㎡,수영,"지체, 시각, 청각/언어, 지적/자폐, 뇌병변, 기타",[12월] 재활수영,09:00 ~ 21:00,"월,화,수,목,금,토","변유진,,조성민",2020.12.01 ~ 2020.12.10,미지원,"장애인 화장실,장애인용 엘리베이터,장애인전용 주차구역,주출입구 단차없음,휠체어 대여,시각장애인 편의서비스,청각장애인 편의서비스","80,000",128.531102952308,35.8275304131386,정좌표
11,(주)한국스포츠산업개발원,최미옥,053-622-0095,대구광역시 달서구 학산로 17 지하1층(월성동),7명,1320 ㎡,농구,"지체, 시각, 청각/언어, 지적/자폐, 뇌병변, 기타",[12월] 키쑥쑥농구,09:00 ~ 21:00,"월,화,수,목,금,토",이주석,2020.12.01 ~ 2020.12.10,미지원,"장애인 화장실,장애인용 엘리베이터,장애인전용 주차구역,주출입구 단차없음,휠체어 대여,시각장애인 편의서비스,청각장애인 편의서비스","80,000",128.531102952308,35.8275304131386,정좌표
12,3949당구장,신해련,010-5231-5411,"서울특별시 동작구 보라매로5가길 16 지하1층 3호(신대방동, 보라매아카데미타워)",1명,330 ㎡,기타종목,"지체, 청각/언어, 지적/자폐, 뇌병변, 기타",[12월] 당구,09:00 ~ 17:00,"월,화,수,목,금",신해련,2020.12.01 ~ 2020.12.10,지원,장애인용 엘리베이터,"80,000",126.924094239981,37.4912742868276,정좌표
13,AY-GYM,임상수,031-388-4855,경기도 안양시 동안구 평촌대로227번길 48 승진빌딩 지하1층(호계동),1명,353 ㎡,복싱,"지적/자폐, 기타",[12월] 복싱PT2회,00:00 ~ 23:30,"월,화,수,목,금,토,일",임상수,2020.12.01 ~ 2020.12.10,미지원,,"80,000",126.952809468111,37.3910968059621,정좌표
14,A미코스텔라 인라인클럽(인라인강습),안종호,010-6357-2365,울산광역시 남구 신복로72번길 28-23 6층,3명,474 ㎡,롤러인라인,"지체, 청각/언어, 지적/자폐, 기타",[12월] 미코스텔라 인라인클럽(인라인강습),06:00 ~ 21:00,"월,화,수,목,금,토,일",안종호,2020.12.01 ~ 2020.12.10,미지원,"장애인 화장실,장애인전용 주차구역","100,000",129.254800996776,35.5522940437859,정좌표
15,EG태권도,박용성,02-333-3525,부산광역시 북구 덕천로 308 농협3층MTA E.G태권도,2명,100 ㎡,태권도,"지체, 청각/언어, 기타","[12월] 줄넘기,태권도",10:00 ~ 22:00,"월,화,수,목,금",김현주,2020.12.01 ~ 2020.12.10,지원,,"80,000",129.037623947689,35.209267696494,정좌표
16,FC CANNON,곽완섭,053-783-0337,대구광역시 수성구 달구벌대로528길 15 수성대학교 숲속운동장 사무실(만촌동),0명,3000 ㎡,축구,"지체, 시각, 청각/언어, 지적/자폐, 뇌병변, 기타",[12월] 축구,13:00 ~ 21:00,"월,화,수,목,금,토",송진근,2020.12.01 ~ 2020.12.10,미지원,"장애인 화장실,장애인전용 주차구역,주출입구 단차없음","80,000",128.649585034241,35.8552197770215,정좌표
17,"GMA해동검도,합기도",이종필,031-665-2587,"경기도 평택시 경기대로 1525 2층 GMA해동검도,합기도(지산동)",1명,165 ㎡,합기도,"지체, 기타",[12월] GMA합기도,14:00 ~ 22:00,"월,화,수,목,금",이종필,2020.12.01 ~ 2020.12.10,지원,,"80,000",127.062291100683,37.0805010056192,정좌표
18,GX짱가휘트니스 ,강승희 ,033-257-7283,강원도 춘천시 동면 춘천로 455 4층,3명,330 ㎡,기타종목,"지적/자폐, 기타",[12월] 라인댄스,11:00 ~ 11:40,"월,수,금",강승희,2020.12.01 ~ 2020.12.10,지원,"장애인용 엘리베이터,장애인전용 주차구역","120,000",127.755312013332,37.8928392547386,정좌표
19,GX짱가휘트니스 ,강승희 ,033-257-7283,강원도 춘천시 동면 춘천로 455 4층,3명,330 ㎡,기타종목,"지적/자폐, 기타",[12월] 이지스피닝,11:00 ~ 11:40,"화,목",강승희,2020.12.01 ~ 2020.12.10,지원,"장애인용 엘리베이터,장애인전용 주차구역","120,000",127.755312013332,37.8928392547386,정좌표
20,GX짱가휘트니스 ,강승희 ,033-257-7283,강원도 춘천시 동면 춘천로 455 4층,3명,330 ㎡,기타종목,기타,[12월] 트렘폴린댄스,10:00 ~ 10:40,"월,수,금",강승희,2020.12.01 ~ 2020.12.10,지원,"장애인용 엘리베이터,장애인전용 주차구역","120,000",127.755312013332,37.8928392547386,정좌표
21,JJ댄스스쿨,이은실,053-781-9800,대구광역시 수성구 용학로 293 3층 JJ댄스스쿨(지산동),0명,260 ㎡,댄스,"지체, 청각/언어, 지적/자폐",[12월] 다이어트댄스,20:00 ~ 22:00,"월,수,금",이은실,2020.12.01 ~ 2020.12.10,미지원,,"80,000",128.640209315248,35.8218701869578,정좌표
22,JJ댄스스쿨,이은실,053-781-9800,대구광역시 수성구 용학로 293 3층 JJ댄스스쿨(지산동),0명,260 ㎡,댄스,"지체, 청각/언어, 지적/자폐",[12월] 방송댄스,19:00 ~ 21:00,"월,수,금",이은실,2020.12.01 ~ 2020.12.10,미지원,,"80,000",128.640209315248,35.8218701869578,정좌표
23,JJ댄스스쿨,이은실,053-781-9800,대구광역시 수성구 용학로 293 3층 JJ댄스스쿨(지산동),0명,260 ㎡,댄스,"지체, 청각/언어, 지적/자폐",[12월] 오전 다이어트 댄스,09:40 ~ 10:30,"월,화,수,목,금",이은실,2020.12.01 ~ 2020.12.10,미지원,,"80,000",128.640209315248,35.8218701869578,정좌표
24,JJ댄스스쿨,이은실,053-781-9800,대구광역시 수성구 용학로 293 3층 JJ댄스스쿨(지산동),0명,260 ㎡,댄스,"지체, 청각/언어, 지적/자폐",[12월] 오전 방송댄스,10:40 ~ 11:30,"월,화,수,목,금",이은실,2020.12.01 ~ 2020.12.10,미지원,,"80,000",128.640209315248,35.8218701869578,정좌표
25,JJ댄스스쿨,이은실,053-781-9800,대구광역시 수성구 용학로 293 3층 JJ댄스스쿨(지산동),0명,260 ㎡,댄스,"지체, 청각/언어, 지적/자폐",[12월] 청소년댄스,18:00 ~ 19:50,"월,화,수,목",이은실,2020.12.01 ~ 2020.12.10,미지원,,"80,000",128.640209315248,35.8218701869578,정좌표
26,JJ댄스스쿨,이은실,053-781-9800,대구광역시 수성구 용학로 293 3층 JJ댄스스쿨(지산동),0명,260 ㎡,댄스,"지체, 청각/언어, 지적/자폐",[12월] 토요 어린이,10:40 ~ 12:00,토,김은이,2020.12.01 ~ 2020.12.10,미지원,,"80,000",128.640209315248,35.8218701869578,정좌표
27,JS운동발달센터,정장석,051-807-5511,부산광역시 부산진구 성지로 30-1 4층(연지동),5명,330 ㎡,기타종목,지적/자폐,[12월] 특수수영 그룹반(예빈),19:00 ~ 19:50,금,정장석,2020.12.01 ~ 2020.12.10,미지원,,"80,000",129.055189345593,35.1734535979448,정좌표
28,JS운동발달센터,정장석,051-807-5511,부산광역시 부산진구 성지로 30-1 4층(연지동),5명,330 ㎡,기타종목,"지체, 시각, 청각/언어, 지적/자폐, 뇌병변, 기타",[12월] 특수체육(인라인)-상영-,18:30 ~ 19:20,월,정장석,2020.12.01 ~ 2020.12.10,미지원,,"80,000",129.055189345593,35.1734535979448,정좌표
29,JS운동발달센터,정장석,051-807-5511,부산광역시 부산진구 성지로 30-1 4층(연지동),5명,330 ㎡,기타종목,"지체, 시각, 청각/언어, 지적/자폐, 뇌병변",[12월] 특수체육(인라인)-수민-,18:30 ~ 19:20,"수,금",정장석,2020.12.01 ~ 2020.12.10,미지원,,"80,000",129.055189345593,35.1734535979448,정좌표
30,KAFA휘트니스,방원경,055-643-4661,경상남도 통영시 중앙로 264 송림데파트 상가 5층 501호(북신동),2명,14876033 ㎡,필라테스,"청각/언어, 지적/자폐, 기타",[12월] 소도구 필라테스& 댄스,16:00 ~ 16:50,"월,수","방원경,,방원경",2020.12.01 ~ 2020.12.10,미지원,장애인용 엘리베이터,"80,000",128.429117763912,34.8540328578755,정좌표
31,MTA태권도,김학수,061-461-3579,전라남도 영암군 삼호읍 대불주거로 55-1 3층 MTA태권도,1명,129 ㎡,태권도,"지체, 청각/언어, 지적/자폐",[12월] 태권도,10:00 ~ 20:00,"월,화,수,목,금",김학수,2020.12.01 ~ 2020.12.10,지원,,"80,000",126.465720048767,34.7463637538118,정좌표
32,M핫요가,오윤정,031-592-0288,경기도 남양주시 진접읍 경복대로 253 진접메디컬센터 6층,명, ㎡,요가,지적/자폐,[12월] 요가,19:50 ~ 20:50,"월,화,수,목,금",,2020.12.01 ~ 2020.12.31,미지원,,"80,000",127.202770905783,37.7211932892026,정좌표
33,NAC한국에어로빅,김탐희,043-222-0776,충청북도 청주시 상당구 월평로 224 2012 4층(용암동),1명,115 ㎡,댄스,기타,[12월] 방송댄스,17:30 ~ 18:30,"월,수,금",김탐희,2020.12.01 ~ 2020.12.10,미지원,,"70,000",127.507936277262,36.6076846292143,정좌표
34,NAC한국에어로빅,김탐희,043-222-0776,충청북도 청주시 상당구 월평로 224 2012 4층(용암동),1명,115 ㎡,에어로빅,기타,[12월] 에어로빅,09:30 ~ 10:30,"월,화,수,목,금",김탐희,2020.12.01 ~ 2020.12.10,미지원,,"70,000",127.507936277262,36.6076846292143,정좌표
35,NAC한국에어로빅,김탐희,043-222-0776,충청북도 청주시 상당구 월평로 224 2012 4층(용암동),1명,115 ㎡,에어로빅,기타,[12월] 에어로빅,20:20 ~ 21:20,"월,화,수,목,금",김탐희,2020.12.01 ~ 2020.12.10,미지원,,"70,000",127.507936277262,36.6076846292143,정좌표
36,NAC한국에어로빅,김탐희,043-222-0776,충청북도 청주시 상당구 월평로 224 2012 4층(용암동),1명,115 ㎡,필라테스,기타,[12월] 필라테스,10:40 ~ 11:40,"화,목",김탐희,2020.12.01 ~ 2020.12.10,미지원,,"70,000",127.507936277262,36.6076846292143,정좌표
37,NAC한국에어로빅,김탐희,043-222-0776,충청북도 청주시 상당구 월평로 224 2012 4층(용암동),1명,115 ㎡,필라테스,기타,[12월] 필라테스,19:10 ~ 20:10,"화,목",김탐희,2020.12.01 ~ 2020.12.10,미지원,,"70,000",127.507936277262,36.6076846292143,정좌표
38,ROAD FC 종합격투기,김성일,010-2727-2200,전남 장성군 장성읍 역전로 202 지하1층,명, ㎡,기타종목,"지체, 청각/언어, 지적/자폐",[12월] 격투기교실,17:00 ~ 22:00,"월,화,수,목,금",김성일,2020.12.01 ~ 2020.12.10,지원,,"80,000",126.786722591899,35.3049897518585,정좌표
39,SB휘트니스,최바름,062-575-5751,광주 북구 양산로 33 3층,명, ㎡,헬스,"지체, 시각, 청각/언어, 지적/자폐, 기타",[12월] 헬스,13:00 ~ 22:00,"월,화,수,목,금,토",이수열,2020.12.01 ~ 2020.12.10,미지원,,"80,000",126.877903931405,35.2108215468668,정좌표
40,SRC스포츠센터,민오식,02-871-8232,서울시 관악구 보라매로 44 2층,3명,369 ㎡,수영,"지체, 시각, 청각/언어, 지적/자폐, 뇌병변, 기타",[12월] 장애인선수수영교실,15:00 ~ 15:50,"월,수,금",김성훈,2020.12.01 ~ 2020.12.10,미지원,"장애인용 엘리베이터,장애인전용 주차구역","80,000",126.927371577517,37.4931684636692,정좌표
41,SRC스포츠센터,민오식,02-871-8232,서울시 관악구 보라매로 44 2층,3명,369 ㎡,수영,"지체, 지적/자폐, 뇌병변",[12월] 장애인수영교실,14:00 ~ 14:50,"화,목",최형완,2020.12.01 ~ 2020.12.10,미지원,"장애인용 엘리베이터,장애인전용 주차구역","80,000",126.927371577517,37.4931684636692,정좌표
42,SRC스포츠센터,민오식,02-871-8232,서울시 관악구 보라매로 44 2층,3명,369 ㎡,수영,"지체, 시각, 청각/언어, 지적/자폐, 뇌병변, 기타",[12월] 장애인수영교실,16:00 ~ 16:50,"화,목",송용지,2020.12.01 ~ 2020.12.10,미지원,"장애인용 엘리베이터,장애인전용 주차구역","80,000",126.927371577517,37.4931684636692,정좌표
43,SRC스포츠센터,민오식,02-871-8232,서울시 관악구 보라매로 44 2층,3명,369 ㎡,수영,"지체, 시각, 청각/언어, 지적/자폐, 뇌병변, 기타",[12월] 장애인수중교실,14:00 ~ 14:50,"월,수,금",송용지,2020.12.01 ~ 2020.12.10,미지원,"장애인용 엘리베이터,장애인전용 주차구역","80,000",126.927371577517,37.4931684636692,정좌표
44,TBC당구장,양해순,02-291-7022,대구광역시 남구 대명로 133 2층 TBC당구장(대명동),1명,300 ㎡,기타종목,"지체, 청각/언어, 지적/자폐, 뇌병변, 기타",[12월] 당구교실,11:30 ~ 19:30,"월,수,금",박준현,2020.12.01 ~ 2020.12.10,미지원,장애인용 엘리베이터,"80,000",128.572390891221,35.839647890033,정좌표
45,TIA 태권도,박은주,02-2696-8374,서울특별시 강서구 화곡로 270 2층(화곡동),1명,151 ㎡,태권도,"지적/자폐, 뇌병변",[12월] 태권도,19:00 ~ 20:00,"월,화,수,목,금",박은주,2020.12.01 ~ 2020.12.10,지원,,"80,000",126.847233641756,37.5486476065032,정좌표
46,TOP용인대박사태권도,김백수,02-898-1551,"서울특별시 금천구 한내로 62 독산한신아파트상가 3층 TOP용인대박사태권도(독산동, 한신아파트)",3명,165 ㎡,태권도,"지체, 시각, 청각/언어, 지적/자폐, 뇌병변, 기타",[12월] TOP용인대박사태권도,14:00 ~ 21:00,"월,화,수,목,금",김경태,2020.12.01 ~ 2020.12.10,지원,,"80,000",126.889829135097,37.4562738348691,정좌표
47,WE토탈휘트니스,신경호,051-332-2000,부산광역시 북구 만덕2로 28 우리마트 2층 WE토탈휘트니스(만덕동),3명,487 ㎡,헬스,"청각/언어, 기타",[12월] 헬스,06:00 ~ 23:00,"월,화,수,목,금",위정현,2020.12.01 ~ 2020.12.10,미지원,"장애인 화장실,장애인용 엘리베이터,장애인전용 주차구역,주출입구 단차없음","80,000",129.037506258769,35.2106756922544,정좌표
48,dreamofjudo 세종유도관,유동훈,044-863-0609,세종특별자치시 보듬3로 100 해피라움1동 304호(아름동),1명,198 ㎡,유도,청각/언어,[12월] 유도수업,14:00 ~ 15:00,월,유동훈,2020.12.01 ~ 2020.12.10,지원,"장애인 화장실,장애인전용 주차구역","160,000",127.248623775701,36.5119524039936,정좌표
49,src재활체육관,조향현,031-799-3893,경기 광주시 초월읍 경수길 25 SRC재활체육관,3명,665 ㎡,배드민턴,"지체, 시각, 청각/언어, 지적/자폐, 뇌병변, 기타",[12월] 배드민턴,09:00 ~ 18:00,"월,화,수,목,금",정병욱,2020.12.01 ~ 2020.12.10,미지원,"장애인 화장실,장애인용 엘리베이터,장애인전용 주차구역,휠체어 대여","40,000",127.286954748975,37.4194286393161,정좌표
50,src재활체육관,조향현,031-799-3893,경기 광주시 초월읍 경수길 25 SRC재활체육관,3명,665 ㎡,기타종목,"지체, 시각, 청각/언어, 지적/자폐, 뇌병변, 기타",[12월] 배드민턴+헬스,06:00 ~ 18:00,"월,화,수,목,금",정병욱,2020.12.01 ~ 2020.12.10,미지원,"장애인 화장실,장애인용 엘리베이터,장애인전용 주차구역,휠체어 대여","40,000",127.286954748975,37.4194286393161,정좌표
51,src재활체육관,조향현,031-799-3893,경기 광주시 초월읍 경수길 25 SRC재활체육관,3명,665 ㎡,기타종목,"지체, 시각, 청각/언어, 지적/자폐, 뇌병변, 기타",[12월] 보치아,09:00 ~ 18:00,"월,화,수,목,금",정병욱,2020.12.01 ~ 2020.12.10,미지원,"장애인 화장실,장애인용 엘리베이터,장애인전용 주차구역,휠체어 대여","40,000",127.286954748975,37.4194286393161,정좌표
52,src재활체육관,조향현,031-799-3893,경기 광주시 초월읍 경수길 25 SRC재활체육관,3명,665 ㎡,수영,"지체, 시각, 청각/언어, 지적/자폐, 뇌병변, 기타",[12월] 장애인 자유수영,06:00 ~ 21:00,"월,화,수,목,금",정병욱,2020.12.01 ~ 2020.12.10,미지원,"장애인 화장실,장애인용 엘리베이터,장애인전용 주차구역,휠체어 대여","40,000",127.286954748975,37.4194286393161,정좌표
53,src재활체육관,조향현,031-799-3893,경기 광주시 초월읍 경수길 25 SRC재활체육관,3명,665 ㎡,헬스,"지체, 시각, 청각/언어, 지적/자폐, 뇌병변, 기타",[12월] 장애인 헬스,06:00 ~ 21:00,"월,화,수,목,금",강희순,2020.12.01 ~ 2020.12.10,미지원,"장애인 화장실,장애인용 엘리베이터,장애인전용 주차구역,휠체어 대여","40,000",127.286954748975,37.4194286393161,정좌표
54,src재활체육관,조향현,031-799-3893,경기 광주시 초월읍 경수길 25 SRC재활체육관,3명,665 ㎡,수영,"지체, 시각, 청각/언어, 지적/자폐, 뇌병변, 기타",[12월] 장애인수영강습,06:00 ~ 21:00,"월,화,수,목,금",이지은,2020.12.01 ~ 2020.12.10,미지원,"장애인 화장실,장애인용 엘리베이터,장애인전용 주차구역,휠체어 대여","40,000",127.286954748975,37.4194286393161,정좌표
55,src재활체육관,조향현,031-799-3893,경기 광주시 초월읍 경수길 25 SRC재활체육관,3명,665 ㎡,수영,"지체, 시각, 청각/언어, 지적/자폐, 뇌병변, 기타",[12월] 장애인수영강습(화목),14:00 ~ 16:00,"화,목",서원,2020.12.01 ~ 2020.12.10,미지원,"장애인 화장실,장애인용 엘리베이터,장애인전용 주차구역,휠체어 대여","40,000",127.286954748975,37.4194286393161,정좌표
56,src재활체육관,조향현,031-799-3893,경기 광주시 초월읍 경수길 25 SRC재활체육관,3명,665 ㎡,헬스,"지체, 시각, 청각/언어, 지적/자폐, 뇌병변, 기타",[12월] 장애인헬스+장애인 자유수영,06:00 ~ 21:00,"월,화,수,목,금","서,원",2020.12.01 ~ 2020.12.10,미지원,"장애인 화장실,장애인용 엘리베이터,장애인전용 주차구역,휠체어 대여","40,000",127.286954748975,37.4194286393161,정좌표
57,src재활체육관,조향현,031-799-3893,경기 광주시 초월읍 경수길 25 SRC재활체육관,3명,665 ㎡,탁구,"지체, 시각, 청각/언어, 지적/자폐, 뇌병변, 기타",[12월] 탁구,09:00 ~ 18:00,"월,화,수,목,금",정병욱,2020.12.01 ~ 2020.12.10,미지원,"장애인 화장실,장애인용 엘리베이터,장애인전용 주차구역,휠체어 대여","40,000",127.286954748975,37.4194286393161,정좌표
58,src재활체육관,조향현,031-799-3893,경기 광주시 초월읍 경수길 25 SRC재활체육관,3명,665 ㎡,기타종목,"지체, 시각, 청각/언어, 지적/자폐, 뇌병변, 기타",[12월] 탁구+배드민턴,09:00 ~ 18:00,"월,화,수,목,금",정병욱,2020.12.01 ~ 2020.12.10,미지원,"장애인 화장실,장애인용 엘리베이터,장애인전용 주차구역,휠체어 대여","40,000",127.286954748975,37.4194286393161,정좌표
59,src재활체육관,조향현,031-799-3893,경기 광주시 초월읍 경수길 25 SRC재활체육관,3명,665 ㎡,기타종목,"지체, 시각, 청각/언어, 지적/자폐, 뇌병변, 기타",[12월] 탁구+헬스,06:00 ~ 21:00,"월,화,수,목,금",정병욱,2020.12.01 ~ 2020.12.10,미지원,"장애인 화장실,장애인용 엘리베이터,장애인전용 주차구역,휠체어 대여","40,000",127.286954748975,37.4194286393161,정좌표
60,sta경희대삼성태권도,박병호,031-653-5112,경기도 평택시 평남로 933 태성빌딩 5층(비전동),1명,150 ㎡,태권도,"지체, 시각, 청각/언어, 지적/자폐",[12월] 태권도,18:00 ~ 18:45,"월,화,수,목,금",박병호,2020.12.01 ~ 2020.12.10,지원,장애인전용 주차구역,"150,000",127.104842006942,37.0040603583894,정좌표
61,sta경희대삼성태권도,박병호,031-653-5112,경기도 평택시 평남로 933 태성빌딩 5층(비전동),1명,150 ㎡,태권도,"지체, 시각, 청각/언어, 지적/자폐",[12월] 태권도,18:00 ~ 18:45,"화,목",박병호,2020.12.01 ~ 2020.12.10,지원,장애인전용 주차구역,"150,000",127.104842006942,37.0040603583894,정좌표
62,강북아동발달센터,오수옥,053-311-7585,북구 학정로 436 DN트윈스빌딩4층,1명,357 ㎡,기타종목,"지체, 지적/자폐, 뇌병변, 기타",[12월] 특수체육,10:00 ~ 20:00,"월,화,수,목,금",김예빈,2020.12.01 ~ 2020.12.10,미지원,주출입구 단차없음,"80,000",128.564160428501,35.943472778784,정좌표
63,강북유소년스포츠센터,박승위,010-2810-4842,대구광역시 북구 동암로12길 17 2층(동천동),2명,467 ㎡,축구,"지체, 지적/자폐, 기타",[12월] 축구,13:00 ~ 14:00,일,"구교찬,,김강호",2020.12.01 ~ 2020.12.10,미지원,,"80,000",128.556850460498,35.9434100695163,정좌표
64,강진스포츠클럽,김명남,061-433-7333,전남 강진군 군동면 종합운동장길 60 강진스포츠클럽,1명,1576 ㎡,댄스,"지체, 청각/언어, 지적/자폐",[12월] 댄스,16:00 ~ 18:00,"토,일",최미옥,2020.12.01 ~ 2020.12.10,미지원,,"80,000",126.782587483718,34.6473508889588,정좌표
65,강진스포츠클럽,김명남,061-433-7333,전남 강진군 군동면 종합운동장길 60 강진스포츠클럽,1명,1576 ㎡,수영,"지체, 청각/언어, 지적/자폐",[12월] 장애인수영교실,18:30 ~ 20:00,"월,금",송인배,2020.12.01 ~ 2020.12.10,미지원,,"80,000",126.782587483718,34.6473508889588,정좌표
66,강진스포츠클럽,김명남,061-433-7333,전남 강진군 군동면 종합운동장길 60 강진스포츠클럽,1명,1576 ㎡,축구,"지체, 청각/언어, 지적/자폐",[12월] 장애인축구교실,10:00 ~ 12:00,"화,목",고준영,2020.12.01 ~ 2020.12.10,미지원,,"80,000",126.782587483718,34.6473508889588,정좌표
67,강진스포츠클럽,김명남,061-433-7333,전남 강진군 군동면 종합운동장길 60 강진스포츠클럽,1명,1576 ㎡,테니스,"지체, 지적/자폐",[12월] 장애인테니스교실,15:00 ~ 17:00,"화,수,목",최혜지,2020.12.01 ~ 2020.12.10,미지원,,"80,000",126.782587483718,34.6473508889588,정좌표
68,강호합기도,곽병철,053-954-0400,"대구광역시 북구 복현로 71 1단지 상가 5층(복현동, 복현블루밍브라운스톤 명문세가아파트)",1명,117 ㎡,합기도,기타,[12월] 합기도,14:00 ~ 22:30,"월,화,수,목,금",곽병철,2020.12.01 ~ 2020.12.10,지원,"장애인 화장실,장애인용 엘리베이터,장애인전용 주차구역,주출입구 단차없음,시각장애인 편의서비스,청각장애인 편의서비스","80,000",128.622166718417,35.8981711280814,정좌표
69,강호합기도본관(지저동),강성대,053-983-0400,대구광역시 동구 해동로 25 새마을금고 4층 강호합기도(지저동),3명,311 ㎡,합기도,"지체, 지적/자폐, 기타",[12월] 강호합기도본관(지저동),02:00 ~ 09:30,"월,화,수,목,금",강성대,2020.12.01 ~ 2020.12.10,지원,,"80,000",128.637866959054,35.8955925231684,정좌표
70,거북이운동센터,곽정익,043-221-5526,충청북도 청주시 상당구 중고개로 285 4층(금천동),3명,330 ㎡,기타종목,"지체, 시각, 청각/언어, 지적/자폐, 뇌병변",[12월] 심리운동교실,13:20 ~ 14:00,화,곽정익,2020.12.01 ~ 2020.12.10,미지원,"장애인 화장실,장애인용 엘리베이터,장애인전용 주차구역,주출입구 단차없음,시각장애인 편의서비스","80,000",127.507947422092,36.6280269993475,정좌표
71,거북이운동센터,곽정익,043-221-5526,충청북도 청주시 상당구 중고개로 285 4층(금천동),3명,330 ㎡,기타종목,"지체, 시각, 청각/언어, 지적/자폐, 뇌병변, 기타",[12월] 재활체육교실,14:00 ~ 14:40,목,곽정익,2020.12.01 ~ 2020.12.10,미지원,"장애인 화장실,장애인용 엘리베이터,장애인전용 주차구역,주출입구 단차없음,시각장애인 편의서비스","80,000",127.507947422092,36.6280269993475,정좌표
72,거북이운동언어심리센터,곽정익,043-848-5526,충청북도 충주시 동수2길 45 3층,2명,310 ㎡,헬스,"지체, 시각, 청각/언어, 지적/자폐, 뇌병변, 기타",[12월] 우리모두 몸짱(헬스),13:00 ~ 13:40,화,"곽정익,,장영재",2020.12.01 ~ 2020.12.10,미지원,"장애인 화장실,장애인용 엘리베이터,주출입구 단차없음,휠체어 대여,시각장애인 편의서비스","80,000",127.939041288759,36.9862436737553,정좌표
73,거북이운동언어심리센터,곽정익,043-848-5526,충청북도 충주시 동수2길 45 3층,2명,310 ㎡,기타종목,"지체, 시각, 청각/언어, 지적/자폐, 기타",[12월] 으라차차(역도),13:00 ~ 13:40,월,곽정익,2020.12.01 ~ 2020.12.10,미지원,"장애인 화장실,장애인용 엘리베이터,주출입구 단차없음,휠체어 대여,시각장애인 편의서비스","80,000",127.939041288759,36.9862436737553,정좌표
74,거북이운동언어심리센터,곽정익,043-848-5526,충청북도 충주시 동수2길 45 3층,2명,310 ㎡,기타종목,"지체, 시각, 청각/언어, 지적/자폐, 뇌병변, 기타",[12월] 재활운동교실,14:00 ~ 14:40,금,"곽정익,,장영재",2020.12.01 ~ 2020.12.10,미지원,"장애인 화장실,장애인용 엘리베이터,주출입구 단차없음,휠체어 대여,시각장애인 편의서비스","80,000",127.939041288759,36.9862436737553,정좌표
75,거산MMA태권도장,진민석,02-3275-1212,서울시 서대문구 세검정로 89 MKA빌딩 2층,1명,100 ㎡,복싱,지체,[12월] 격투기,13:00 ~ 16:00,"월,화,수,목,금",진민석,2020.12.01 ~ 2020.12.10,미지원,,"130,000",126.94865643361,37.5957631955392,정좌표
76,거산MMA태권도장,진민석,02-3275-1212,서울시 서대문구 세검정로 89 MKA빌딩 2층,1명,100 ㎡,복싱,지체,[12월] 격투기,14:00 ~ 15:00,화,진민석,2020.12.01 ~ 2020.12.10,미지원,,"130,000",126.94865643361,37.5957631955392,정좌표
77,거제시장애인복지관,윤숙이,055-633-2942,경상남도 거제시 양정1길 45 성우샤인빌 601호(양정동),0명,5005 ㎡,기타종목,"지체, 청각/언어, 지적/자폐, 뇌병변, 기타",[12월] 뉴스포츠,11:00 ~ 12:00,토,김동현,2020.12.01 ~ 2020.12.10,미지원,"장애인 화장실,장애인용 엘리베이터,장애인전용 주차구역,주출입구 단차없음,휠체어 대여","25,000",128.646126126488,34.8693970910713,정좌표
78,거제시장애인복지관,윤숙이,055-633-2942,경상남도 거제시 양정1길 45 성우샤인빌 601호(양정동),0명,5005 ㎡,배드민턴,"지체, 청각/언어, 지적/자폐",[12월] 배드민턴반,15:30 ~ 16:30,월,김정숙,2020.12.01 ~ 2020.12.10,미지원,"장애인 화장실,장애인용 엘리베이터,장애인전용 주차구역,주출입구 단차없음,휠체어 대여","25,000",128.646126126488,34.8693970910713,정좌표
79,거제시장애인복지관,윤숙이,055-633-2942,경상남도 거제시 양정1길 45 성우샤인빌 601호(양정동),0명,5005 ㎡,수영,"지체, 시각, 청각/언어, 지적/자폐, 뇌병변, 기타",[12월] 수영반,17:00 ~ 18:00,화,강상욱,2020.12.01 ~ 2020.12.10,미지원,"장애인 화장실,장애인용 엘리베이터,장애인전용 주차구역,주출입구 단차없음,휠체어 대여","25,000",128.646126126488,34.8693970910713,정좌표
80,거제시장애인복지관,윤숙이,055-633-2942,경상남도 거제시 양정1길 45 성우샤인빌 601호(양정동),0명,5005 ㎡,기타종목,"청각/언어, 지적/자폐",[12월] 씨름반,15:00 ~ 16:00,수,"한유란,,조아현,,이다현",2020.12.01 ~ 2020.12.10,미지원,"장애인 화장실,장애인용 엘리베이터,장애인전용 주차구역,주출입구 단차없음,휠체어 대여","25,000",128.646126126488,34.8693970910713,정좌표
81,거제시장애인복지관,윤숙이,055-633-2942,경상남도 거제시 양정1길 45 성우샤인빌 601호(양정동),0명,5005 ㎡,탁구,"지체, 청각/언어, 지적/자폐",[12월] 탁구반,14:00 ~ 16:00,"월,수",이상도,2020.12.01 ~ 2020.12.10,미지원,"장애인 화장실,장애인용 엘리베이터,장애인전용 주차구역,주출입구 단차없음,휠체어 대여","25,000",128.646126126488,34.8693970910713,정좌표
82,거제시체육회 수영장,김환중,055-682-7331,경남 거제시 장승로 145 거제문화예술회관 별관2층,명, ㎡,수영,기타,[12월] 수영,10:00 ~ 10:50,"월,화,수,목,금",박동인,2020.12.01 ~ 2020.12.10,미지원,,"65,000",128.723967585264,34.8671539179517,정좌표
83,거제시체육회 수영장,김환중,055-682-7331,경남 거제시 장승로 145 거제문화예술회관 별관2층,명, ㎡,수영,기타,[12월] 수영강습,16:00 ~ 16:50,"화,수,목,금",신수철,2020.12.01 ~ 2020.12.10,미지원,,"65,000",128.723967585264,34.8671539179517,정좌표
84,건강나눔평생교육원,고영아,061-272-7727,전남 목포시 수문로 57 4층,3명,605 ㎡,골프,"지체, 시각, 지적/자폐",[12월] 그라운드골프교실,09:00 ~ 18:00,"수,금",고영아,2020.12.01 ~ 2020.12.10,미지원,"장애인 화장실,장애인용 엘리베이터,장애인전용 주차구역,주출입구 단차없음","80,000",126.380415239212,34.7937035566828,정좌표
85,건강나눔평생교육원,고영아,061-272-7727,전남 목포시 수문로 57 4층,3명,605 ㎡,기타종목,"지체, 지적/자폐",[12월] 뉴스포츠교실,09:00 ~ 18:00,"월,수",김형건,2020.12.01 ~ 2020.12.10,미지원,"장애인 화장실,장애인용 엘리베이터,장애인전용 주차구역,주출입구 단차없음","80,000",126.380415239212,34.7937035566828,정좌표
86,건강나눔평생교육원,고영아,061-272-7727,전남 목포시 수문로 57 4층,3명,605 ㎡,기타종목,"지체, 청각/언어, 지적/자폐",[12월] 댄스스포츠교실,09:00 ~ 18:00,"화,목",도순애,2020.12.01 ~ 2020.12.10,미지원,"장애인 화장실,장애인용 엘리베이터,장애인전용 주차구역,주출입구 단차없음","80,000",126.380415239212,34.7937035566828,정좌표
87,건강나눔평생교육원,고영아,061-272-7727,전남 목포시 수문로 57 4층,3명,605 ㎡,기타종목,"지체, 시각, 청각/언어, 지적/자폐",[12월] 라인댄스교실,09:00 ~ 18:00,"화,목",도순애,2020.12.01 ~ 2020.12.10,미지원,"장애인 화장실,장애인용 엘리베이터,장애인전용 주차구역,주출입구 단차없음","80,000",126.380415239212,34.7937035566828,정좌표
88,건강나눔평생교육원,고영아,061-272-7727,전남 목포시 수문로 57 4층,3명,605 ㎡,기타종목,"지체, 시각, 청각/언어",[12월] 웨이트트레이닝교실,09:00 ~ 18:00,"월,수",김형건,2020.12.01 ~ 2020.12.10,미지원,"장애인 화장실,장애인용 엘리베이터,장애인전용 주차구역,주출입구 단차없음","80,000",126.380415239212,34.7937035566828,정좌표
89,건강나눔평생교육원,고영아,061-272-7727,전남 목포시 수문로 57 4층,3명,605 ㎡,기타종목,"지체, 시각, 청각/언어",[12월] 재활필라테스교실,09:00 ~ 18:00,"화,목",도순애,2020.12.01 ~ 2020.12.10,미지원,"장애인 화장실,장애인용 엘리베이터,장애인전용 주차구역,주출입구 단차없음","80,000",126.380415239212,34.7937035566828,정좌표
90,건강활동지원협동조합,강양훈,061-272-1333,전라남도 목포시 영산로 413-1 영신관 1층(상동),5명,176 ㎡,헬스,"지체, 시각, 청각/언어, 지적/자폐, 뇌병변, 기타",[12월] 오전반) 소도구를 이용한 신체기능개선 운동프로그램,11:00 ~ 11:50,"월,화,수,목,금",하주호,2020.12.01 ~ 2020.12.10,미지원,"장애인전용 주차구역,주출입구 단차없음","80,000",126.409377013785,34.8076264646756,정좌표
91,건강활동지원협동조합,강양훈,061-272-1333,전라남도 목포시 영산로 413-1 영신관 1층(상동),5명,176 ㎡,헬스,"지체, 시각, 청각/언어, 지적/자폐, 뇌병변",[12월] 오후반) 소도구를 이용한 신체기능개선 운동프로그램,15:00 ~ 15:50,"월,화,수,목,금",하주호,2020.12.01 ~ 2020.12.10,미지원,"장애인전용 주차구역,주출입구 단차없음","80,000",126.409377013785,34.8076264646756,정좌표
92,검수원검도관,박유일,02-312-6343,서울특별시 서대문구 북아현로4길 2 지층(북아현동),2명,88 ㎡,검도,"지체, 청각/언어, 지적/자폐",[12월] 검도교실,15:00 ~ 16:00,"월,화,수,목,금","박유일,,이수정",2020.12.01 ~ 2020.12.10,미지원,장애인전용 주차구역,"130,000",126.95681032594,37.5592300395471,정좌표
93,검수원검도관,박유일,02-312-6343,서울특별시 서대문구 북아현로4길 2 지층(북아현동),2명,88 ㎡,검도,"지체, 청각/언어, 지적/자폐",[12월] 검도교실,16:30 ~ 17:30,"월,화,수,목,금","박유일,,이수정",2020.12.01 ~ 2020.12.10,미지원,장애인전용 주차구역,"130,000",126.95681032594,37.5592300395471,정좌표
94,검수원검도관,박유일,02-312-6343,서울특별시 서대문구 북아현로4길 2 지층(북아현동),2명,88 ㎡,검도,"지체, 청각/언어, 지적/자폐",[12월] 검도교실,18:30 ~ 19:30,"월,화,수,목,금","박유일,,이수정",2020.12.01 ~ 2020.12.10,미지원,장애인전용 주차구역,"130,000",126.95681032594,37.5592300395471,정좌표
95,경남태권도체육관,최미진,055-355-8905,경상남도 밀양시 가곡7길 9 경남태권도체육관(가곡동),1명,218 ㎡,태권도,"지체, 청각/언어",[12월] 태권도,16:00 ~ 22:00,"월,화,수,목,금",이형철,2020.12.01 ~ 2020.12.10,지원,장애인전용 주차구역,"80,000",128.767071033938,35.4744101606796,정좌표
96,경산수영장,경산시장,053-810-5467,경상북도 경산시 장산로 201 (상방동),0명,3791 ㎡,수영,"지체, 청각/언어, 지적/자폐, 뇌병변, 기타",[12월] 경산수영장 수영,08:00 ~ 21:00,"월,화,수,목,금,토","윤웅진,외,9인",2020.12.01 ~ 2020.12.10,미지원,"장애인 화장실,장애인용 엘리베이터,장애인전용 주차구역,주출입구 단차없음","60,000",128.747259023796,35.8208610162582,정좌표
97,경원태권도장,이기훈,031-844-3989,경기도 의정부시 태평로145번길 42 경원태권도장(의정부동),1명,165 ㎡,태권도,"지적/자폐, 기타",[12월] 경원태권도,18:30 ~ 19:30,"월,화,수,목,금",노재동,2020.12.01 ~ 2020.12.10,미지원,,"80,000",127.048241866258,37.7453886023062,정좌표
98,경주시장애인종합복지관(경주시장애인체육관),유병윤,054-777-0545,경상북도 경주시 유림로5번길 99-11 장애인체육관 2층(황성동),1명,130061 ㎡,농구,"지적/자폐, 뇌병변",[12월] 농구교실,16:00 ~ 18:00,월,이진길,2020.12.01 ~ 2020.12.10,미지원,"장애인 화장실,장애인용 엘리베이터,장애인전용 주차구역,주출입구 단차없음,휠체어 대여","80,000",129.218383945954,35.8803147400218,정좌표
99,경주시장애인종합복지관(경주시장애인체육관),유병윤,054-777-0545,경상북도 경주시 유림로5번길 99-11 장애인체육관 2층(황성동),1명,130061 ㎡,배드민턴,"지체, 청각/언어, 뇌병변, 기타",[12월] 휠스배드민턴 교실,10:00 ~ 12:00,화,이진길,2020.12.01 ~ 2020.12.10,미지원,"장애인 화장실,장애인용 엘리베이터,장애인전용 주차구역,주출입구 단차없음,휠체어 대여","80,000",129.218383945954,35.8803147400218,정좌표
100,경희대 수덕태권도,오상무,044-862-8808,세종특별자치시 조치원읍 충현로 159 욱일아파트 상가2층 경희대수덕태권도(욱일아파트),2명,100 ㎡,태권도,"지체, 시각, 청각/언어, 지적/자폐, 뇌병변, 기타",[12월] 태권도,15:30 ~ 14:30,"월,화,수,목,금","오상무관장님,,오세열사범님",2020.12.01 ~ 2020.12.10,지원,"장애인용 엘리베이터,장애인전용 주차구역","120,000",127.293776173397,36.6025312574661,정좌표
101,경희대대한민국태권도,심선보,031-855-1952,경기도 의정부시 백석로68번길 27 호원프라자 3층 경희대석사 대한민국태권도,2명,45 ㎡,태권도,"지체, 청각/언어, 지적/자폐",[12월] 태권도,14:00 ~ 20:55,"월,화,수,목,금",심선보,2020.12.01 ~ 2020.12.10,지원,"장애인전용 주차구역,주출입구 단차없음","130,000",127.04606138048,37.7285006942622,정좌표
102,경희대웅비태권도,이준호,02-222-4747,충청북도 청주시 상당구 교서로 60 1층,1명,82 ㎡,기타종목,지적/자폐,[12월] 음악줄넘기,14:00 ~ 20:00,"월,화,수,목,금",정두리,2020.12.01 ~ 2020.12.10,지원,,"80,000",127.485945239585,36.6420391466768,정좌표
103,경희대웅비태권도,이준호,02-222-4747,충청북도 청주시 상당구 교서로 60 1층,1명,82 ㎡,태권도,지적/자폐,[12월] 태권도,14:00 ~ 20:00,"월,화,수,목,금",정두리,2020.12.01 ~ 2020.12.10,지원,,"80,000",127.485945239585,36.6420391466768,정좌표
104,계명대 도복사랑 태권도,서범길,054-7933-9279,"경상북도 구미시 문장로 111 도량 롯데캐슬 상가 2층(도량동, 도량 롯데캐슬 골드파크)",2명,165 ㎡,태권도,"지체, 청각/언어, 지적/자폐","[12월] 태권도, 줄넘기, 학교체육",14:00 ~ 17:30,"월,화,수,목,금,토","서범길,관장,,박민지,사범",2020.12.01 ~ 2020.12.10,미지원,"장애인 화장실,장애인용 엘리베이터,장애인전용 주차구역,주출입구 단차없음","130,000",128.331208807629,36.1430813808947,정좌표
105,계명대효신태권도,최영곤,053-643-2626,대구광역시 달서구 상화북로 196 상가 105동 201호(상인동.제림아파트),1명,160116 ㎡,태권도,"지체, 청각/언어, 지적/자폐",[12월] 태권도 ,04:00 ~ 10:00,"월,화,수,목,금",최영곤,2020.12.01 ~ 2020.12.10,지원,주출입구 단차없음,"130,000",128.547973038641,35.8127710656466,정좌표
106,계명대효신태권도,최영곤,053-643-2626,대구광역시 달서구 상화북로 196 상가 105동 201호(상인동.제림아파트),1명,160116 ㎡,태권도,"지체, 청각/언어, 지적/자폐",[12월] 태권도교실,04:00 ~ 10:00,"월,화,수,목,금",최영곤,2020.12.01 ~ 2020.12.10,지원,주출입구 단차없음,"130,000",128.547973038641,35.8127710656466,정좌표
107,계명석사태권도장,김성종,054-463-5998,경상북도 구미시 박정희로 155 201동 401호 402호(사곡동),2명,165 ㎡,태권도,"지체, 시각, 청각/언어, 지적/자폐, 뇌병변, 기타",[12월] 태권도,10:00 ~ 18:00,"월,화,수,목,금","김성종,,박선아",2020.12.01 ~ 2020.12.10,지원,"장애인전용 주차구역,청각장애인 편의서비스","130,000",128.34701850918,36.0918505840956,정좌표
108,계명태권스쿨,이영식,054-832-0364,의성군 의성읍 군청길 19-1 ,명, ㎡,태권도,지체,[12월] 태권도,18:30 ~ 19:30,"월,화,수,목,금",최찬영,2020.12.01 ~ 2020.12.10,지원,,"130,000",128.695983361849,36.3525828575733,정좌표
109,고당산체육관,곽영호,02-973-1405,부산광역시 강서구 공항로1309번길 160-1 고당산,2명,166 ㎡,태권도,지적/자폐,[12월] 태권도,14:30 ~ 15:30,"월,화,수,목,금",곽영호,2020.12.01 ~ 2020.12.10,지원,,"80,000",128.980144000574,35.2156248268267,정좌표
110,고려대강호체육관,신동규,043-838-5557,충청북도 증평군 증평읍 장동길 20 고려대강호체육관,2명,99 ㎡,태권도,"지체, 청각/언어, 지적/자폐, 기타","[12월] 태권도,스트레칭,요가",09:00 ~ 12:00,"월,화,수,목,금",신동규,2020.12.01 ~ 2020.12.10,지원,,"80,000",127.587932045882,36.78511611593,정좌표
111,고려연수체육관,이동규,043-852-3500,충청북도 충주시 연수동산로 7 금영빌딩 4층 고려연수체육관(연수동),1명,120 ㎡,태권도,"지체, 청각/언어",[12월] 태권도 수련,20:00 ~ 21:00,"화,목","이동규,,이동규",2020.12.01 ~ 2020.12.10,지원,,"80,000",127.951620603847,36.9932651331473,정좌표
112,고봉산업서문목욕탕(시민헬스),권희동,053-521-9094,대구광역시 중구 달성공원로 2 시민사우나헬스(대신동),3명,270 ㎡,기타종목,지체,[12월] 다이어트댄스,08:30 ~ 09:20,"월,화,수,목,금",전혜경,2020.12.01 ~ 2020.12.10,미지원,,"80,000",128.579785918475,35.870778086943,정좌표
113,고봉산업서문목욕탕(시민헬스),권희동,053-521-9094,대구광역시 중구 달성공원로 2 시민사우나헬스(대신동),3명,270 ㎡,헬스,지체,[12월] 헬스,06:00 ~ 22:00,"월,화,수,목,금","권형중,,,김경호",2020.12.01 ~ 2020.12.10,미지원,,"80,000",128.579785918475,35.870778086943,정좌표
114,고봉산업서문목욕탕(시민헬스),권희동,053-521-9094,대구광역시 중구 달성공원로 2 시민사우나헬스(대신동),3명,270 ㎡,헬스,"지체, 청각/언어, 지적/자폐",[12월] 헬스+사우나,06:00 ~ 21:00,"월,화,수,목,금,토,일",김경호,2020.12.01 ~ 2020.12.10,미지원,,"80,000",128.579785918475,35.870778086943,정좌표
115,고양시 덕양행신장애인주간보호센터,선경석,031-839-6100,경기도 고양시 덕양구 서정마을2로 13 행신종합사회복지관 1층 고양시덕양행신장애인주간보호센터,2명,583 ㎡,기타종목,"시각, 지적/자폐",[12월] 실내조정교실,17:30 ~ 18:20,"화,목",박범열,2020.12.01 ~ 2020.12.10,미지원,"장애인 화장실,장애인용 엘리베이터,장애인전용 주차구역,주출입구 단차없음,휠체어 대여,시각장애인 편의서비스","49,000",126.847126528618,37.621382870541,정좌표
116,골드짐헬스클럽,김형욱,053-631-0103,대구광역시 달서구 상화북로 180 쌍봉빌딩 7층 골드짐 헬스클럽(상인동),1명,300 ㎡,헬스,"시각, 청각/언어",[12월] 헬스,13:00 ~ 02:00,"화,금",김형욱,2020.12.01 ~ 2020.12.10,미지원,"장애인전용 주차구역,주출입구 단차없음","80,000",128.545653398489,35.8125027630416,정좌표
117,골든샤크플레잉센터,권도한,044-862-9848,세종특별자치시 연기면 조뱅이길 76-19 1동,2명,199 ㎡,배드민턴,"지적/자폐, 뇌병변",[12월] 특수체육교실,13:30 ~ 20:30,"월,화,수,목,금",장재원,2020.12.01 ~ 2020.12.10,지원,,"80,000",127.233715959045,36.5361854361635,정좌표
118,골든샤크플레잉센터,권도한,044-862-9848,세종특별자치시 연기면 조뱅이길 76-19 1동,2명,199 ㎡,기타종목,"지적/자폐, 뇌병변",[12월] 특수체육교실,13:30 ~ 20:30,"월,화,수,목,금","나민균,,김승재",2020.12.01 ~ 2020.12.10,지원,,"80,000",127.233715959045,36.5361854361635,정좌표
119,골든태권도장,정은재,051-554-5550,부산광역시 동래구 금강로 15 4층 골든태권도장(온천동),2명,223 ㎡,태권도,"지적/자폐, 기타",[12월] 태권도,14:00 ~ 21:00,"월,화,수",정은재,2020.12.01 ~ 2020.12.10,지원,,"80,000",129.072716197976,35.2127984960228,정좌표
120,골든태권도장,정은재,051-554-5550,부산광역시 동래구 금강로 15 4층 골든태권도장(온천동),2명,223 ㎡,태권도,지적/자폐,[12월] 태권도수업,14:00 ~ 21:00,"월,화,수",정은재,2020.12.01 ~ 2020.12.10,지원,,"80,000",129.072716197976,35.2127984960228,정좌표
121,곰돌이발달지원센터,한용철,02-2642-2144,서울특별시 양천구 은행정로 5 에벤에셀프라자314호(신정동),4명,148 ㎡,헬스,"지체, 시각, 청각/언어, 지적/자폐, 뇌병변, 기타",[12월] 헬스,10:30 ~ 20:00,"월,화,수,목,금","한용철,,최영진,,김규태",2020.12.01 ~ 2020.12.10,지원,"장애인 화장실,장애인용 엘리베이터,장애인전용 주차구역","80,000",126.859571719343,37.5201943976418,정좌표
122,곰두리탁구클럽,유정화,053-474-9161,대구광역시 남구 대봉로 162 지하 곰두리탁구클럽(이천동),1명,218 ㎡,탁구,"지체, 청각/언어, 지적/자폐, 뇌병변, 기타",[12월] 주말 오후반,14:00 ~ 18:00,"토,일","유호달,,이정득,,이상무",2020.12.01 ~ 2020.12.10,미지원,,"80,000",128.603052543863,35.8532995131729,정좌표
123,곰두리탁구클럽,유정화,053-474-9161,대구광역시 남구 대봉로 162 지하 곰두리탁구클럽(이천동),1명,218 ㎡,탁구,"지체, 청각/언어, 지적/자폐, 뇌병변, 기타",[12월] 평일 야간반,19:00 ~ 21:00,"월,수,금","유호달,,이상무",2020.12.01 ~ 2020.12.10,미지원,,"80,000",128.603052543863,35.8532995131729,정좌표
124,곰두리탁구클럽,유정화,053-474-9161,대구광역시 남구 대봉로 162 지하 곰두리탁구클럽(이천동),1명,218 ㎡,탁구,"지체, 청각/언어, 지적/자폐, 뇌병변, 기타",[12월] 평일 오후반,14:00 ~ 18:00,"월,화,수,목,금","이정득,,이상무",2020.12.01 ~ 2020.12.10,미지원,,"80,000",128.603052543863,35.8532995131729,정좌표
125,광산구시설관리공단 빛고을국민체육센터,김재석,062-955-9101,광주광역시 광산구 무진대로211번길 28 빛고을국민체육센터(우산동),10명,4708 ㎡,수영,"지체, 시각, 청각/언어, 지적/자폐, 기타",[12월] 수영,14:00 ~ 17:00,"화,목",이종영,2020.11.20 ~ 2020.12.10,미지원,"장애인 화장실,장애인용 엘리베이터,장애인전용 주차구역,주출입구 단차없음,휠체어 대여,시각장애인 편의서비스","80,000",126.804462816444,35.1635033653996,정좌표
126,광산구시설관리공단 빛고을국민체육센터,김재석,062-955-9101,광주광역시 광산구 무진대로211번길 28 빛고을국민체육센터(우산동),10명,4708 ㎡,헬스,"지체, 시각, 청각/언어, 지적/자폐, 기타",[12월] 헬스,14:00 ~ 17:00,"월,화,수,목,금",문일,2020.11.20 ~ 2020.12.10,미지원,"장애인 화장실,장애인용 엘리베이터,장애인전용 주차구역,주출입구 단차없음,휠체어 대여,시각장애인 편의서비스","80,000",126.804462816444,35.1635033653996,정좌표
127,광주동희체육관,김은희,02-269-7708,광주광역시 북구 문산로 43-7 5층체육관(문흥동),2명,300 ㎡,기타종목,"지체, 시각, 청각/언어, 지적/자폐, 뇌병변, 기타",[12월]  태권도요가 경찰무도 합기도 ,07:00 ~ 10:30,"월,화,수,목,금","김은희,,김은희,,이동선",2020.12.01 ~ 2020.12.10,지원,,"80,000",126.922347417018,35.1859012946649,정좌표
128,광진발달장애인평생교육센터,김창겸,02-455-1221,서울특별시 광진구 아차산로 390 제일빌딩 3-4층(자양동),2명,4311 ㎡,기타종목,지적/자폐,[12월] 뉴스포츠 수업,17:00 ~ 18:30,수,이성진,2020.12.01 ~ 2020.12.10,지원,"장애인 화장실,장애인용 엘리베이터,장애인전용 주차구역,주출입구 단차없음","80,000",127.086143493116,37.5369128606703,정좌표
129,광진발달장애인평생교육센터,김창겸,02-455-1221,서울특별시 광진구 아차산로 390 제일빌딩 3-4층(자양동),2명,4311 ㎡,볼링,"지적/자폐, 기타",[12월] 볼링 수업,17:00 ~ 18:30,월,이성진,2020.12.01 ~ 2020.12.10,지원,"장애인 화장실,장애인용 엘리베이터,장애인전용 주차구역,주출입구 단차없음","80,000",127.086143493116,37.5369128606703,정좌표
130,괴정 스마트태권도,강창휘,042-535-3292,대전광역시 서구 도솔로 343 2층 스마트태권도(괴정동),3명,191 ㎡,태권도,지체,[12월] 태권도,14:00 ~ 19:30,"월,화,수,목,금",강창휘,2020.12.01 ~ 2020.12.10,미지원,,"80,000",127.384804693242,36.3383557331822,정좌표
131,구남유도체육관,이승엽,054-255-6565,경상북도 포항시 북구 중앙로 368 2층 구남유도체육관(덕수동),2명,65 ㎡,유도,"시각, 청각/언어",[12월] 유도및체육,20:30 ~ 22:00,"월,화,수,목,금","전광수,,이승엽,,조정현",2020.12.01 ~ 2020.12.10,지원,시각장애인 편의서비스,"80,000",129.365073516302,36.0453755200983,정좌표
132,구로구발달장애인평생교육센터,박미진,02-2685-9579,서울특별시 구로구 안양천로 552 / 4-5층 구로구발달장애인평생교육센터(고척동),3명,1342 ㎡,기타종목,"지체, 시각, 청각/언어, 지적/자폐, 뇌병변, 기타",[12월] 기초체력 및 생활체육(1),09:00 ~ 10:00,토,조성민,2020.12.01 ~ 2020.12.10,미지원,"장애인 화장실,장애인용 엘리베이터,장애인전용 주차구역,주출입구 단차없음","80,000",126.867397606769,37.4958178012719,인근좌표
133,구로구발달장애인평생교육센터,박미진,02-2685-9579,서울특별시 구로구 안양천로 552 / 4-5층 구로구발달장애인평생교육센터(고척동),3명,1342 ㎡,기타종목,"지체, 시각, 청각/언어, 지적/자폐, 뇌병변, 기타",[12월] 기초체력 및 생활체육(2),10:00 ~ 11:00,토,조성민,2020.12.01 ~ 2020.12.10,미지원,"장애인 화장실,장애인용 엘리베이터,장애인전용 주차구역,주출입구 단차없음","80,000",126.867397606769,37.4958178012719,인근좌표
134,구로구발달장애인평생교육센터,박미진,02-2685-9579,서울특별시 구로구 안양천로 552 / 4-5층 구로구발달장애인평생교육센터(고척동),3명,1342 ㎡,기타종목,"지체, 시각, 청각/언어, 지적/자폐, 뇌병변, 기타",[12월] 기초체력 및 생활체육(3),19:00 ~ 20:00,목,신동휘,2020.12.01 ~ 2020.12.10,미지원,"장애인 화장실,장애인용 엘리베이터,장애인전용 주차구역,주출입구 단차없음","80,000",126.867397606769,37.4958178012719,인근좌표
135,구리시장애인종합복지관,김재현,031-562-0068,경기도 구리시 이문안로 86-1 구리시장애인종합복지관(수택동),1명,2821 ㎡,헬스,"지체, 청각/언어, 지적/자폐, 뇌병변",[12월] 순환운동,11:00 ~ 17:30,"월,화,수,목,금","홍일화,,이영록",2020.12.01 ~ 2020.12.10,지원,"장애인 화장실,장애인전용 주차구역,주출입구 단차없음,휠체어 대여,시각장애인 편의서비스,청각장애인 편의서비스","15,000",127.141033208083,37.5915532527163,정좌표
136,구미시장애인체육관,김숙희,054-451-7976,경북 구미시 공원로 340 구미시장애인체육관,4명,3727 ㎡,승마,지적/자폐,[12월] 승마,14:00 ~ 16:00,"화,목",송동근,2020.12.01 ~ 2020.12.10,미지원,"장애인 화장실,장애인용 엘리베이터,장애인전용 주차구역,주출입구 단차없음,휠체어 대여,시각장애인 편의서비스,청각장애인 편의서비스","100,000",128.330045283178,36.1055478796252,정좌표
137,구미시장애인체육관,김숙희,054-451-7976,경북 구미시 공원로 340 구미시장애인체육관,4명,3727 ㎡,탁구,"지체, 청각/언어, 지적/자폐, 뇌병변, 기타",[12월] 탁구,14:00 ~ 16:00,"월,화,수,목,금",김은란,2020.12.01 ~ 2020.12.10,미지원,"장애인 화장실,장애인용 엘리베이터,장애인전용 주차구역,주출입구 단차없음,휠체어 대여,시각장애인 편의서비스,청각장애인 편의서비스","100,000",128.330045283178,36.1055478796252,정좌표
138,구미시장애인체육관,김숙희,054-451-7976,경북 구미시 공원로 340 구미시장애인체육관,4명,3727 ㎡,기타종목,"지체, 지적/자폐, 뇌병변, 기타",[12월] 특수체육,10:00 ~ 17:00,"월,화,수,목,금",김태우,2020.12.01 ~ 2020.12.10,미지원,"장애인 화장실,장애인용 엘리베이터,장애인전용 주차구역,주출입구 단차없음,휠체어 대여,시각장애인 편의서비스,청각장애인 편의서비스","100,000",128.330045283178,36.1055478796252,정좌표
139,구미시장애인체육관,김숙희,054-451-7976,경북 구미시 공원로 340 구미시장애인체육관,4명,3727 ㎡,기타종목,"지체, 뇌병변, 기타",[12월] 휠체어럭비,18:30 ~ 21:00,"화,토",이승후,2020.12.01 ~ 2020.12.10,미지원,"장애인 화장실,장애인용 엘리베이터,장애인전용 주차구역,주출입구 단차없음,휠체어 대여,시각장애인 편의서비스,청각장애인 편의서비스","100,000",128.330045283178,36.1055478796252,정좌표
140,구지탁구클럽,김영재,010-4401-3336,대구광역시 달성군 구지면 과학마을로 30 4층 구지탁구클럽,2명,248 ㎡,탁구,"지체, 청각/언어, 지적/자폐, 뇌병변, 기타",[12월] 탁구교실,11:00 ~ 23:00,"월,수,금",김영재,2020.12.01 ~ 2020.12.10,미지원,,"140,000",128.416445665821,35.6555681506215,정좌표
141,구지탁구클럽,김영재,010-4401-3336,대구광역시 달성군 구지면 과학마을로 30 4층 구지탁구클럽,2명,248 ㎡,탁구,"지체, 청각/언어, 지적/자폐, 뇌병변, 기타",[12월] 탁구교실,14:00 ~ 23:00,수,김영재,2020.12.01 ~ 2020.12.10,미지원,,"140,000",128.416445665821,35.6555681506215,정좌표
142,구포검도장 합기도,김종은,02-334-5084,부산광역시 북구 시랑로83번길 99 1층,1명,165 ㎡,합기도,"지체, 시각, 청각/언어, 지적/자폐, 뇌병변, 기타","[12월] 합기도, 검도",15:00 ~ 16:00,"월,화,수,목,금",김종은,2020.12.01 ~ 2020.12.10,지원,장애인 화장실,"80,000",129.011126467266,35.196268756283,정좌표
143,국가대표 명학태권도장,배현진,031-348-6988,경기도 안양시 만안구 성결대학로 14 2층 명학태권도(안양동),3명,244 ㎡,태권도,"지체, 지적/자폐, 뇌병변, 기타",[12월] 국가대표 명학태권도장,12:00 ~ 21:00,"월,화,수,목,금",배현진,2020.12.01 ~ 2020.12.10,지원,,"80,000",126.932442871066,37.3832681149301,정좌표
144,국가대표튼튼태권도,박동찬,02-391-3376,서울특별시 서대문구 홍은중앙로 89 3층 국가대표튼튼태권도(홍은동),2명,198 ㎡,태권도,시각,[12월] 태권도,19:30 ~ 20:20,"월,화,수,목,금,토",박동찬,2020.12.01 ~ 2020.12.10,지원,,"160,000",126.947352242272,37.5990278819484,정좌표
145,국민대유진관,안정민,02-556-3216,대구광역시 서구 국채보상로52길 7 2층 국민대유진관(평리동),1명,125 ㎡,합기도,"청각/언어, 지적/자폐",[12월] 합기도,03:30 ~ 22:20,"월,화,수,목,금",안정민,2020.12.01 ~ 2020.12.10,지원,,"110,000",128.559903833518,35.8706260934865,정좌표
146,국민체육센터,신용철,02-264-7304,강원도 춘천시 우석로 102-3 국민체육센터(석사동),0명,4843 ㎡,수영,"지체, 시각, 청각/언어, 지적/자폐, 뇌병변, 기타",[12월] 자유수영,05:00 ~ 21:00,"화,수,목,금,토",미상,2020.12.01 ~ 2020.12.10,미지원,"장애인 화장실,장애인전용 주차구역,주출입구 단차없음,휠체어 대여","32,500",127.756664465159,37.8626403813765,정좌표
147,국민체육센터,신용철,02-264-7304,강원도 춘천시 우석로 102-3 국민체육센터(석사동),0명,4843 ㎡,헬스,"지체, 시각, 청각/언어, 지적/자폐, 뇌병변, 기타",[12월] 헬스자유,05:00 ~ 21:00,"화,수,목,금,토",미상,2020.12.01 ~ 2020.12.10,미지원,"장애인 화장실,장애인전용 주차구역,주출입구 단차없음,휠체어 대여","32,500",127.756664465159,37.8626403813765,정좌표
148,국민태권도,김병섭,051-524-8833,부산광역시 동래구 명안로86번길 29 3층 국민태권도(명장동),3명,147 ㎡,태권도,"지체, 시각, 청각/언어","[12월] 태권도,줄넘기",09:00 ~ 22:00,"월,화,수,목,금,토","태권도,,줄넘기",2020.12.01 ~ 2020.12.10,지원,,"130,000",129.106001169558,35.2040521875488,정좌표
149,국술원종합무술본관,서상식,052-252-8833,울산광역시 동구 양지1길 21 (화정동),3명,135 ㎡,기타종목,기타,[12월] 국술원 무술,16:30 ~ 17:30,"월,화,수,목,금",서상식,2020.12.01 ~ 2020.12.10,지원,,"80,000",129.420162808781,35.4965747125572,정좌표
150,국술원종합무술본관,서상식,052-252-8833,울산광역시 동구 양지1길 21 (화정동),3명,135 ㎡,기타종목,기타,[12월] 국술원 무술,18:00 ~ 19:00,"월,화,수,목,금",서상식,2020.12.01 ~ 2020.12.10,지원,,"80,000",129.420162808781,35.4965747125572,정좌표
151,국술원종합무술본관,서상식,052-252-8833,울산광역시 동구 양지1길 21 (화정동),3명,135 ㎡,기타종목,기타,[12월] 국술원 무술,19:30 ~ 20:30,"월,화,수,목,금",서상식,2020.12.01 ~ 2020.12.10,지원,,"80,000",129.420162808781,35.4965747125572,정좌표
152,국심검도관(대무관),최갑동,02-584-6820,서울특별시 동작구 사당로16길 7 4층 국심검도관(사당동),1명,40 ㎡,검도,"지체, 청각/언어, 지적/자폐, 기타",[12월] 검도수업,15:00 ~ 20:30,"월,화,수,목,금",최갑동,2020.12.01 ~ 2020.12.10,지원,장애인 화장실,"120,000",126.973855773632,37.4829220262039,정좌표
153,국제볼링타운,신종수,061-278-8014,전남 목포시 청호로 170  (청호로),명, ㎡,볼링,"지체, 청각/언어, 지적/자폐",[12월] 볼링,09:00 ~ 18:00,"월,화,수,목,금,토,일",신종수,2020.12.01 ~ 2020.12.10,미지원,,"80,000",126.374027341629,34.8060871767158,정좌표
154,국제체육관,최순철,02-754-9070,충남 금산군 금산읍 오리정1길 52 다경빌딩 3층,1명,330 ㎡,태권도,"지체, 시각, 청각/언어, 지적/자폐, 뇌병변, 기타",[12월] 장애인태권도교실,14:00 ~ 21:30,"월,화,수,목,금","최순철,,최순철",2020.12.01 ~ 2020.12.10,지원,장애인전용 주차구역,"80,000",127.488535821419,36.1044454281183,정좌표
155,굿샷골프,김범영,02-462-7559,전라북도 군산시 상지곡안3길 31 지곡동,1명,400 ㎡,골프,"지체, 지적/자폐",[12월] 골프,15:00 ~ 18:00,"월,화,수,목,금",김범영,2020.12.01 ~ 2020.12.10,미지원,,"80,000",126.709131195206,35.9586102113401,정좌표
156,권의성태권도장,권의성,02-657-1576,경기도 평택시 조개터로42번길 66 3층 권의성태권도장(합정동),2명,198 ㎡,태권도,지적/자폐,[12월] 태권도,01:00 ~ 09:00,"월,화,수,목,금",권의성,2020.12.01 ~ 2020.12.10,지원,,"80,000",127.106319906068,36.9900434092061,정좌표
157,그린OA시스템,김범영,02-462-7559,전라북도 군산시 상지곡안3길 31 지곡동,1명,400 ㎡,골프,"지체, 지적/자폐",[12월] 골프,15:00 ~ 18:00,"월,화,수,목,금",김범영,2020.12.01 ~ 2020.12.10,미지원,,"80,000",126.709131195206,35.9586102113401,정좌표
158,금강태권도,나민관,051-783-2926,부산광역시 해운대구 재반로 200-1 반여2동 1291-803번지 3층 금강태권도(반여동),1명,184 ㎡,태권도,지적/자폐,[12월] 태권도,15:30 ~ 16:30,"월,화,수,목,금",나민관,2020.12.01 ~ 2020.12.10,지원,,"80,000",129.130839963103,35.1951222731712,정좌표
159,금곡 태권도,최우창,032-562-0022,인천광역시 서구 완정로228번길 9 401호 금곡 태권도(금곡동),1명,40 ㎡,태권도,"지체, 시각, 청각/언어, 지적/자폐, 뇌병변, 기타",[12월] 태권도,11:00 ~ 12:00,"월,수,금",최우창,2020.12.01 ~ 2020.12.10,지원,주출입구 단차없음,"140,000",126.651358023677,37.6046344992815,정좌표
160,금부태권도,박은미,02-382-6777,광주광역시 서구 금화로149번길 25 상가동 201호(금호동),2명,122 ㎡,태권도,"지체, 시각, 청각/언어, 지적/자폐, 뇌병변, 기타",[12월] 태권도,14:30 ~ 21:30,"월,화,수,목,금,토","박성민,,선광준",2020.12.01 ~ 2020.12.10,지원,,"80,000",126.863454745988,35.1347748295079,정좌표
161,금빛호수 태권도,박서진,02-2232-2073,서울특별시 성동구 동호로 102 상가동 604호 금빛호수 태권도(금호동3가),2명,112 ㎡,태권도,지적/자폐,[12월] 태권도 트램플린,18:00 ~ 18:30,"목,금",박서진,2020.12.01 ~ 2020.12.10,지원,장애인전용 주차구역,"80,000",127.01642199821,37.5488781963741,정좌표
162,금성복싱클럽,이광운,041-858-7989,충청남도 공주시 공주대학로 85 3층 금성복싱클럽(신관동),1명,226 ㎡,복싱,기타,[12월] 복싱놀이체육,11:00 ~ 17:00,"토,일",이광운,2020.12.01 ~ 2020.12.10,미지원,,"50,000",127.137496175733,36.4725981565467,정좌표
163,금정국민체육센터,정미영,051-5173-6935,부산광역시 금정구 서부로 109 (부곡동) ,명, ㎡,댄스,"지체, 시각, 청각/언어, 지적/자폐, 뇌병변, 기타","[12월] 댄스(월,수,금)",10:00 ~ 15:50,"월,수,금",조희진,2020.12.01 ~ 2020.12.10,지원,,"50,000",129.096143106985,35.2194476427958,정좌표
164,금정국민체육센터,정미영,051-5173-6935,부산광역시 금정구 서부로 109 (부곡동) ,명, ㎡,댄스,"지체, 시각, 청각/언어, 지적/자폐, 뇌병변, 기타",[12월] 댄스(월~금)-성인,08:00 ~ 21:50,"월,화,수,목,금",최수정,2020.12.01 ~ 2020.12.10,지원,,"50,000",129.096143106985,35.2194476427958,정좌표
165,금정국민체육센터,정미영,051-5173-6935,부산광역시 금정구 서부로 109 (부곡동) ,명, ㎡,댄스,"지체, 시각, 청각/언어, 지적/자폐",[12월] 댄스(월~금)-청소년,08:00 ~ 21:50,"월,화,수,목,금",최수정,2020.12.01 ~ 2020.12.10,지원,,"50,000",129.096143106985,35.2194476427958,정좌표
166,금정국민체육센터,정미영,051-5173-6935,부산광역시 금정구 서부로 109 (부곡동) ,명, ㎡,수영,"지체, 시각, 청각/언어, 지적/자폐, 뇌병변, 기타","[12월] 수영(월,수,금)-성인",06:00 ~ 18:50,"월,수,금",김덕준,2020.12.01 ~ 2020.12.10,지원,,"50,000",129.096143106985,35.2194476427958,정좌표
167,금정국민체육센터,정미영,051-5173-6935,부산광역시 금정구 서부로 109 (부곡동) ,명, ㎡,수영,"지체, 시각, 청각/언어, 지적/자폐, 뇌병변, 기타","[12월] 수영(월,수,금)-청소년",06:00 ~ 21:50,"월,수,금",김덕준,2020.12.01 ~ 2020.12.10,지원,,"50,000",129.096143106985,35.2194476427958,정좌표
168,금정국민체육센터,정미영,051-5173-6935,부산광역시 금정구 서부로 109 (부곡동) ,명, ㎡,수영,"지체, 시각, 청각/언어, 지적/자폐, 뇌병변, 기타","[12월] 수영(월,수,금)-초등학생",16:00 ~ 18:50,"월,수,금",김덕준,2020.12.01 ~ 2020.12.10,지원,,"50,000",129.096143106985,35.2194476427958,정좌표
169,금정국민체육센터,정미영,051-5173-6935,부산광역시 금정구 서부로 109 (부곡동) ,명, ㎡,수영,"지체, 시각, 청각/언어, 지적/자폐, 뇌병변, 기타",[12월] 수영(월~금)-성인,06:00 ~ 21:50,"월,화,수,목,금",김덕준,2020.12.01 ~ 2020.12.10,지원,,"50,000",129.096143106985,35.2194476427958,정좌표
170,금정국민체육센터,정미영,051-5173-6935,부산광역시 금정구 서부로 109 (부곡동) ,명, ㎡,수영,"지체, 시각, 청각/언어, 지적/자폐, 뇌병변, 기타",[12월] 수영(월~금)-청소년,06:00 ~ 21:50,"월,화,수,목,금",김덕준,2020.12.01 ~ 2020.12.10,지원,,"50,000",129.096143106985,35.2194476427958,정좌표
171,금정국민체육센터,정미영,051-5173-6935,부산광역시 금정구 서부로 109 (부곡동) ,명, ㎡,수영,"지체, 시각, 청각/언어, 지적/자폐, 뇌병변, 기타","[12월] 수영(화,목)-성인",11:00 ~ 14:50,"화,목",김덕준,2020.12.01 ~ 2020.12.10,지원,,"50,000",129.096143106985,35.2194476427958,정좌표
172,금정국민체육센터,정미영,051-5173-6935,부산광역시 금정구 서부로 109 (부곡동) ,명, ㎡,수영,"지체, 시각, 청각/언어, 지적/자폐, 뇌병변, 기타","[12월] 수영(화,목)-청소년",06:00 ~ 06:50,"화,목",김덕준,2020.12.01 ~ 2020.12.10,지원,,"50,000",129.096143106985,35.2194476427958,정좌표
173,금정국민체육센터,정미영,051-5173-6935,부산광역시 금정구 서부로 109 (부곡동) ,명, ㎡,헬스,"지체, 시각, 청각/언어, 지적/자폐, 뇌병변, 기타","[12월] 수영(화,목)-초등학생",17:00 ~ 17:50,"화,목",김덕준,2020.12.01 ~ 2020.12.10,지원,,"50,000",129.096143106985,35.2194476427958,정좌표
174,금정국민체육센터,정미영,051-5173-6935,부산광역시 금정구 서부로 109 (부곡동) ,명, ㎡,수영,"지체, 시각, 청각/언어, 지적/자폐, 뇌병변, 기타","[12월] 수영(화,목,토)-성인",06:00 ~ 21:50,"화,목,토",김덕준,2020.12.01 ~ 2020.12.10,지원,,"50,000",129.096143106985,35.2194476427958,정좌표
175,금정국민체육센터,정미영,051-5173-6935,부산광역시 금정구 서부로 109 (부곡동) ,명, ㎡,기타종목,"지체, 시각, 청각/언어, 지적/자폐, 뇌병변, 기타","[12월] 스피닝(월,수,금)",07:10 ~ 20:40,"월,수,금",하경,2020.12.01 ~ 2020.12.10,지원,,"50,000",129.096143106985,35.2194476427958,정좌표
176,금정국민체육센터,정미영,051-5173-6935,부산광역시 금정구 서부로 109 (부곡동) ,명, ㎡,기타종목,"지체, 시각, 청각/언어, 지적/자폐, 뇌병변, 기타","[12월] 스피닝(화,목)",10:10 ~ 11:50,"화,목",하경,2020.12.01 ~ 2020.12.10,지원,,"50,000",129.096143106985,35.2194476427958,정좌표
177,금정국민체육센터,정미영,051-5173-6935,부산광역시 금정구 서부로 109 (부곡동) ,명, ㎡,수영,"지체, 시각, 청각/언어, 지적/자폐, 뇌병변, 기타","[12월] 아쿠아로빅(화,목)",13:00 ~ 16:50,"화,목",김덕준,2020.12.01 ~ 2020.12.10,지원,,"50,000",129.096143106985,35.2194476427958,정좌표
178,금정국민체육센터,정미영,051-5173-6935,부산광역시 금정구 서부로 109 (부곡동) ,명, ㎡,수영,"지체, 시각, 청각/언어, 지적/자폐, 뇌병변, 기타","[12월] 아쿠아로빅(화,목,토)",12:00 ~ 15:50,"화,목,토",김덕준,2020.12.01 ~ 2020.12.10,지원,,"50,000",129.096143106985,35.2194476427958,정좌표
179,금정국민체육센터,정미영,051-5173-6935,부산광역시 금정구 서부로 109 (부곡동) ,명, ㎡,발레,"지체, 시각, 청각/언어, 지적/자폐, 뇌병변, 기타",[12월] 어린이발레(만6세이상),10:00 ~ 10:50,토,미확정,2020.12.01 ~ 2020.12.10,지원,,"50,000",129.096143106985,35.2194476427958,정좌표
180,금정국민체육센터,정미영,051-5173-6935,부산광역시 금정구 서부로 109 (부곡동) ,명, ㎡,수영,"지체, 시각, 청각/언어, 지적/자폐, 뇌병변, 기타",[12월] 어린이주말수영(초등학생),08:00 ~ 10:50,토,미지정,2020.12.01 ~ 2020.12.10,지원,,"50,000",129.096143106985,35.2194476427958,정좌표
181,금정국민체육센터,정미영,051-5173-6935,부산광역시 금정구 서부로 109 (부곡동) ,명, ㎡,댄스,"지체, 시각, 청각/언어, 지적/자폐, 뇌병변, 기타",[12월] 연예인방송댄스(만6세~초등학생),14:00 ~ 14:50,토,미확정,2020.12.01 ~ 2020.12.10,지원,,"50,000",129.096143106985,35.2194476427958,정좌표
182,금정국민체육센터,정미영,051-5173-6935,부산광역시 금정구 서부로 109 (부곡동) ,명, ㎡,요가,"지체, 시각, 청각/언어, 지적/자폐, 뇌병변, 기타","[12월] 요가(월,수,금)-성인",06:00 ~ 21:50,"월,수,금",김경숙,2020.12.01 ~ 2020.12.10,지원,,"50,000",129.096143106985,35.2194476427958,정좌표
183,금정국민체육센터,정미영,051-5173-6935,부산광역시 금정구 서부로 109 (부곡동) ,명, ㎡,요가,"지체, 시각, 청각/언어, 지적/자폐, 뇌병변, 기타","[12월] 요가(월,수,금)-청소년",06:00 ~ 21:50,"월,수,금",김경숙,2020.12.01 ~ 2020.12.10,지원,,"50,000",129.096143106985,35.2194476427958,정좌표
184,금정국민체육센터,정미영,051-5173-6935,부산광역시 금정구 서부로 109 (부곡동) ,명, ㎡,요가,"지체, 시각, 청각/언어, 지적/자폐, 뇌병변, 기타","[12월] 요가(화,목)-성인",19:00 ~ 20:50,"화,목",미지정,2020.12.01 ~ 2020.12.10,지원,,"50,000",129.096143106985,35.2194476427958,정좌표
185,금정국민체육센터,정미영,051-5173-6935,부산광역시 금정구 서부로 109 (부곡동) ,명, ㎡,요가,"지체, 시각, 청각/언어, 지적/자폐, 뇌병변, 기타","[12월] 요가(화,목)-청소년",19:00 ~ 20:50,"화,목",미확정,2020.12.01 ~ 2020.12.10,지원,,"50,000",129.096143106985,35.2194476427958,정좌표
186,금정국민체육센터,정미영,051-5173-6935,부산광역시 금정구 서부로 109 (부곡동) ,명, ㎡,수영,"지체, 시각, 청각/언어, 지적/자폐, 뇌병변, 기타",[12월] 월 자유수영,13:00 ~ 14:50,"월,화,수,목,금",강사없음,2020.12.01 ~ 2020.12.10,지원,,"50,000",129.096143106985,35.2194476427958,정좌표
187,금정국민체육센터,정미영,051-5173-6935,부산광역시 금정구 서부로 109 (부곡동) ,명, ㎡,발레,"지체, 시각, 청각/언어, 지적/자폐, 뇌병변, 기타",[12월] 유아발레(48개월~만6세),11:00 ~ 11:50,토,미확정,2020.12.01 ~ 2020.12.10,지원,,"50,000",129.096143106985,35.2194476427958,정좌표
188,금정국민체육센터,정미영,051-5173-6935,부산광역시 금정구 서부로 109 (부곡동) ,명, ㎡,헬스,"지체, 시각, 청각/언어, 지적/자폐, 뇌병변, 기타",[12월] 장애우 헬스(성인),12:00 ~ 17:00,"월,화,수,목,금,토",하경,2020.12.01 ~ 2020.12.10,지원,,"50,000",129.096143106985,35.2194476427958,정좌표
189,금정국민체육센터,정미영,051-5173-6935,부산광역시 금정구 서부로 109 (부곡동) ,명, ㎡,헬스,"지체, 시각, 청각/언어, 지적/자폐, 뇌병변, 기타",[12월] 장애우 헬스(청소년),12:00 ~ 17:00,"월,화,수,목,금,토",하경,2020.12.01 ~ 2020.12.10,지원,,"50,000",129.096143106985,35.2194476427958,정좌표
190,금정국민체육센터,정미영,051-5173-6935,부산광역시 금정구 서부로 109 (부곡동) ,명, ㎡,수영,"지체, 시각, 청각/언어, 지적/자폐, 뇌병변, 기타",[12월] 토요유아수영(만6~7세),10:00 ~ 11:00,토,미지정,2020.12.01 ~ 2020.12.10,지원,,"50,000",129.096143106985,35.2194476427958,정좌표
191,금정국민체육센터,정미영,051-5173-6935,부산광역시 금정구 서부로 109 (부곡동) ,명, ㎡,헬스,"지체, 시각, 청각/언어, 지적/자폐, 뇌병변, 기타",[12월] 토요헬스(성인),09:00 ~ 18:00,토,하경,2020.12.01 ~ 2020.12.10,지원,,"50,000",129.096143106985,35.2194476427958,정좌표
192,금정국민체육센터,정미영,051-5173-6935,부산광역시 금정구 서부로 109 (부곡동) ,명, ㎡,헬스,"지체, 시각, 청각/언어, 지적/자폐, 뇌병변, 기타",[12월] 토요헬스(청소년),09:00 ~ 17:30,토,하경,2020.12.01 ~ 2020.12.10,지원,,"50,000",129.096143106985,35.2194476427958,정좌표
193,금정국민체육센터,정미영,051-5173-6935,부산광역시 금정구 서부로 109 (부곡동) ,명, ㎡,기타종목,"지체, 시각, 청각/언어, 지적/자폐, 뇌병변, 기타",[12월] 패키지(격일반)-수영+헬스,12:00 ~ 17:00,"월,화,수,목,금,토",김민석,2020.12.01 ~ 2020.12.10,지원,,"50,000",129.096143106985,35.2194476427958,정좌표
194,금정국민체육센터,정미영,051-5173-6935,부산광역시 금정구 서부로 109 (부곡동) ,명, ㎡,기타종목,"지체, 시각, 청각/언어, 지적/자폐, 뇌병변, 기타",[12월] 패키지(전일반)-수영+헬스,12:00 ~ 17:00,"월,화,수,목,금,토,일",미확정,2020.12.01 ~ 2020.12.10,지원,,"50,000",129.096143106985,35.2194476427958,정좌표
195,금정국민체육센터,정미영,051-5173-6935,부산광역시 금정구 서부로 109 (부곡동) ,명, ㎡,요가,"지체, 시각, 청각/언어, 지적/자폐, 뇌병변, 기타","[12월] 필라테스(화,목)-성인",09:10 ~ 21:50,"화,목",미지정,2020.12.01 ~ 2020.12.10,지원,,"50,000",129.096143106985,35.2194476427958,정좌표
196,금정국민체육센터,정미영,051-5173-6935,부산광역시 금정구 서부로 109 (부곡동) ,명, ㎡,필라테스,"지체, 시각, 청각/언어, 지적/자폐, 뇌병변, 기타","[12월] 필라테스(화,목)-청소년",09:10 ~ 21:50,"화,목",미지정,2020.12.01 ~ 2020.12.10,지원,,"50,000",129.096143106985,35.2194476427958,정좌표
197,금정국민체육센터,정미영,051-5173-6935,부산광역시 금정구 서부로 109 (부곡동) ,명, ㎡,댄스,"지체, 시각, 청각/언어, 지적/자폐, 뇌병변, 기타",[12월] 하와이안 훌라-성인,11:00 ~ 11:50,"화,목",조희진,2020.12.01 ~ 2020.12.10,지원,,"50,000",129.096143106985,35.2194476427958,정좌표
198,금정국민체육센터,정미영,051-5173-6935,부산광역시 금정구 서부로 109 (부곡동) ,명, ㎡,헬스,"지체, 시각, 청각/언어, 지적/자폐, 뇌병변, 기타",[12월] 헬스(성인),06:00 ~ 21:50,"월,화,수,목,금,토",하경,2020.12.01 ~ 2020.12.10,지원,,"50,000",129.096143106985,35.2194476427958,정좌표
199,금정국민체육센터,정미영,051-5173-6935,부산광역시 금정구 서부로 109 (부곡동) ,명, ㎡,헬스,"지체, 시각, 청각/언어, 지적/자폐, 뇌병변, 기타",[12월] 헬스(청소년),06:00 ~ 21:50,"월,화,수,목,금,토,일",하경,2020.12.01 ~ 2020.12.10,지원,,"50,000",129.096143106985,35.2194476427958,정좌표
200,금정국민체육센터,정미영,051-5173-6935,부산광역시 금정구 서부로 109 (부곡동) ,명, ㎡,헬스,"지체, 시각, 청각/언어, 지적/자폐, 뇌병변, 기타","[12월] 헬스+스피닝(월,수,금)",06:00 ~ 21:50,"월,화,수,목,금,토",하경,2020.12.01 ~ 2020.12.10,지원,,"50,000",129.096143106985,35.2194476427958,정좌표
201,금정국민체육센터,정미영,051-5173-6935,부산광역시 금정구 서부로 109 (부곡동) ,명, ㎡,헬스,"지체, 시각, 청각/언어, 지적/자폐, 뇌병변, 기타","[12월] 헬스+스피닝(화,목)",06:00 ~ 21:50,"월,화,수,목,금,토",하경,2020.12.01 ~ 2020.12.10,지원,,"50,000",129.096143106985,35.2194476427958,정좌표
202,금천장애인종합복지관,박은정,02-6912-8000,서울특별시 금천구 시흥대로101길 17 금천장애인종합복지관(독산동),1명,1952 ㎡,탁구,"지체, 시각, 청각/언어, 지적/자폐, 뇌병변, 기타",[12월] 탁구&배드민턴 클럽,13:00 ~ 15:00,"수,금",곽도성,2020.12.01 ~ 2020.12.10,미지원,"장애인 화장실,장애인용 엘리베이터,장애인전용 주차구역,주출입구 단차없음,휠체어 대여,시각장애인 편의서비스,청각장애인 편의서비스","5,000",126.896332266645,37.4639665364728,정좌표
203,금천장애인종합복지관,박은정,02-6912-8000,서울특별시 금천구 시흥대로101길 17 금천장애인종합복지관(독산동),1명,1952 ㎡,기타종목,"지체, 시각, 청각/언어, 지적/자폐, 뇌병변, 기타","[12월] 탁구&배드민턴 클럽, 보치아 클럽",13:00 ~ 15:00,"수,목",곽도성,2020.12.01 ~ 2020.12.10,미지원,"장애인 화장실,장애인용 엘리베이터,장애인전용 주차구역,주출입구 단차없음,휠체어 대여,시각장애인 편의서비스,청각장애인 편의서비스","5,000",126.896332266645,37.4639665364728,정좌표
204,기쁜우리체육센터,임형균,02-3663-8114,"서울특별시 강서구 허준로 65 (가양동, 기쁜우리복지관,체육센터) 기쁜우리체육센터",8명,971 ㎡,볼링,"지체, 청각/언어, 지적/자폐, 뇌병변, 기타",[12월] 볼링 선수반(헬스패키지),10:00 ~ 10:50,"월,금",장지훈,2020.12.07 ~ 2020.12.10,미지원,"장애인 화장실,장애인전용 주차구역,주출입구 단차없음,휠체어 대여","80,000",126.849232637973,37.5690470100681,정좌표
205,기품있는태권도장,이동,02-956-1020,대구광역시 북구 대현남로2길 38 2층 기품태권도장(대현동),2명,165 ㎡,태권도,"청각/언어, 지적/자폐",[12월] 태권도를 이용한 신체활동,10:00 ~ 11:00,토,이동,2020.12.01 ~ 2020.12.10,지원,,"150,000",128.605575788949,35.8790925333458,정좌표
206,김덕현특수교육체육사업단,김덕현,032-433-9272,인천광역시 부평구 열우물로 164 열우물경기장 내 206호 209호,명, ㎡,기타종목,"지체, 시각, 청각/언어, 지적/자폐, 뇌병변, 기타",[12월] 헬스교실,09:00 ~ 20:00,"월,화,수,목,금,토,일",김덕현,2020.12.01 ~ 2020.12.10,미지원,,"80,000",126.691593470833,37.4801054443948,정좌표
207,김미경아동발달지원센터,김미경,053-312-8278,대구광역시 북구 학정로 429 6층(동천동),5명,51 ㎡,기타종목,"청각/언어, 지적/자폐, 뇌병변, 기타",[12월] 운동,09:00 ~ 20:00,수,송세영,2020.12.01 ~ 2020.12.10,미지원,"장애인 화장실,장애인용 엘리베이터,장애인전용 주차구역","80,000",128.5632362088,35.94307418842,정좌표
208,김미경아동발달지원센터,김미경,053-312-8278,대구광역시 북구 학정로 429 6층(동천동),5명,51 ㎡,기타종목,"청각/언어, 지적/자폐, 뇌병변, 기타",[12월] 운동,09:00 ~ 20:00,"수,토",송세영,2020.12.01 ~ 2020.12.10,미지원,"장애인 화장실,장애인용 엘리베이터,장애인전용 주차구역","80,000",128.5632362088,35.94307418842,정좌표
209,김제시국민체육센터볼링장,황병필,063-542-5983,전라북도 김제시 도작로 224-121 국민체육센터볼링장(검산동),1명,800 ㎡,볼링,"지체, 청각/언어, 지적/자폐, 기타",[12월] 특수스포츠볼링교실,13:00 ~ 14:30,화,황병필,2020.12.01 ~ 2020.12.10,미지원,"장애인 화장실,장애인용 엘리베이터,장애인전용 주차구역,주출입구 단차없음","80,000",126.903406304395,35.8126829257228,정좌표
210,김탁구교실,이규임,070-8814-8979,경상남도 창원시 마산합포구 해안대로 7 509호. 남부시네마타운(월남동5가),3명,198 ㎡,탁구,"지체, 지적/자폐, 뇌병변, 기타",[12월] 장애인 강좌,11:00 ~ 21:30,"화,목,금","노경진,,정운서,,김효수",2020.12.01 ~ 2020.12.10,미지원,"장애인 화장실,장애인용 엘리베이터,장애인전용 주차구역,주출입구 단차없음","80,000",128.559752793151,35.1807904395297,정좌표
211,꿈나무심리언어연구소,변의정,031-254-4888,경기도 수원시 장안구 정조로 988 조원샤르망 212호(조원동),2명,218 ㎡,기타종목,"지체, 시각, 지적/자폐, 뇌병변, 기타",[12월] 뉴스포츠,12:00 ~ 21:00,"월,화,수,목,금,토","김상범,,채관영",2020.12.01 ~ 2020.12.10,미지원,"장애인 화장실,장애인용 엘리베이터,장애인전용 주차구역,주출입구 단차없음,시각장애인 편의서비스","80,000",127.010024203134,37.295126291812,정좌표
212,꿈나무인지언어연구소,변의정,031-254-4888,수원시 팔달구 행궁로 77 송산빌딩 2층,1명,420 ㎡,기타종목,"지체, 시각, 청각/언어, 지적/자폐, 뇌병변",[12월] 뉴스포츠 교실(개별),12:00 ~ 21:00,"월,화,수,목,금",김봉열,2020.12.01 ~ 2020.12.10,미지원,"장애인 화장실,장애인용 엘리베이터,장애인전용 주차구역,주출입구 단차없음,시각장애인 편의서비스","80,000",127.015896160802,37.2757469360416,정좌표
213,꿈나무인지언어연구소,변의정,031-254-4888,수원시 팔달구 행궁로 77 송산빌딩 2층,1명,420 ㎡,기타종목,"지체, 지적/자폐, 뇌병변",[12월] 뉴스포츠 교실(그룹),12:00 ~ 21:00,"월,화,수,목,금",김봉열,2020.12.01 ~ 2020.12.10,미지원,"장애인 화장실,장애인용 엘리베이터,장애인전용 주차구역,주출입구 단차없음,시각장애인 편의서비스","80,000",127.015896160802,37.2757469360416,정좌표
214,꿈나무태권도,김택주,031-8017-1611,경기도 성남시 분당구 동판교로 59 자유퍼스트프라자1동 1층(백현동),3명,90 ㎡,태권도,기타,[12월] 동판교 백현동 꿈나무 태권도,10:00 ~ 12:00,"월,수,금",김택주,2020.12.01 ~ 2020.12.10,지원,"장애인 화장실,장애인전용 주차구역,주출입구 단차없음","140,000",127.115038630401,37.3883346049724,정좌표
215,꿈비아동발달센터,박정훈,02-517-1734,인천시 미추홀구 송림로247 우주프라자 4층,3명,124 ㎡,기타종목,"지체, 시각, 청각/언어, 지적/자폐, 뇌병변, 기타",[12월] 특수체육,09:00 ~ 20:00,"월,화,수,목,금,토","박정훈,,양지원",2020.12.01 ~ 2020.12.10,미지원,"장애인용 엘리베이터,장애인전용 주차구역,주출입구 단차없음,휠체어 대여","80,000",126.660307988777,37.4751878029132,정좌표
216,꿈자라다운동발달센터,김동규,031-375-1442,경기도 화성시 동탄대로19길 10 신유메디프라자 308호(오산동),2명,126 ㎡,기타종목,"지체, 시각, 청각/언어, 지적/자폐, 뇌병변, 기타",[12월] 특수체육,10:00 ~ 21:00,"월,화,수,목,금","한다현,,김동규",2020.12.01 ~ 2020.12.10,미지원,"장애인 화장실,장애인용 엘리베이터,장애인전용 주차구역,주출입구 단차없음,시각장애인 편의서비스","80,000",127.097767635528,37.1971932027962,정좌표
217,나사렛대학교산학협력단APA센터,손병창,041-570-1524,충남 천안시 서북구 월봉로 48 제2창학관 지하1층 APA센터 ,4명,330 ㎡,기타종목,지적/자폐,[12월] 굴려라 볼링교실,19:00 ~ 21:00,금,박소연,2020.12.01 ~ 2020.12.10,미지원,,"160,000",127.119100524654,36.7977464805712,정좌표
218,남도석사태권도장,최재성,053-654-4624,대구광역시 남구 현충로 140 2층 남도석사태권도장(대명동),1명,218 ㎡,태권도,기타,[12월] 태권도,13:30 ~ 21:00,"월,화,수,목,금",최재성,2020.12.01 ~ 2020.12.10,지원,,"80,000",128.580245830081,35.8451897891459,정좌표
219,남양주도시공사,류성택,031-560-1301,경기도 남양주시 다산지금로 91 남양주체육문화센터(이패동),1명,4442 ㎡,수영,지적/자폐,[12월] 어울림B(청소년),18:00 ~ 18:50,"화,목",안대준,2020.12.01 ~ 2020.12.10,미지원,"장애인 화장실,장애인용 엘리베이터,장애인전용 주차구역,주출입구 단차없음,시각장애인 편의서비스","30,500",127.175810450649,37.6055031059771,정좌표
220,남양주도시공사,류성택,031-560-1301,경기도 남양주시 다산지금로 91 남양주체육문화센터(이패동),1명,4442 ㎡,수영,지적/자폐,[12월] 어울림수영A(만7세~12세),18:00 ~ 18:50,"월,수,금",최병성,2020.12.01 ~ 2020.12.10,미지원,"장애인 화장실,장애인용 엘리베이터,장애인전용 주차구역,주출입구 단차없음,시각장애인 편의서비스","30,500",127.175810450649,37.6055031059771,정좌표
221,남양주도시공사,류성택,031-560-1301,경기도 남양주시 다산지금로 91 남양주체육문화센터(이패동),1명,4442 ㎡,헬스,청각/언어,[12월] 헬스(성인),06:00 ~ 21:50,"월,화,수,목,금,토,일","박지영,,김남승,,김민정",2020.12.01 ~ 2020.12.10,미지원,"장애인 화장실,장애인용 엘리베이터,장애인전용 주차구역,주출입구 단차없음,시각장애인 편의서비스","30,500",127.175810450649,37.6055031059771,정좌표
222,남양주체육문화센터,류성택,031-560-1301,경기도 남양주시 다산지금로 91 남양주체육문화센터(이패동),1명,4442 ㎡,수영,지적/자폐,[12월] 어울림B(청소년),18:00 ~ 18:50,"화,목",안대준,2020.12.01 ~ 2020.12.10,미지원,"장애인 화장실,장애인용 엘리베이터,장애인전용 주차구역,주출입구 단차없음,시각장애인 편의서비스","30,500",127.175810450649,37.6055031059771,정좌표
223,남양주체육문화센터,류성택,031-560-1301,경기도 남양주시 다산지금로 91 남양주체육문화센터(이패동),1명,4442 ㎡,수영,지적/자폐,[12월] 어울림수영A(만7세~12세),18:00 ~ 18:50,"월,수,금",최병성,2020.12.01 ~ 2020.12.10,미지원,"장애인 화장실,장애인용 엘리베이터,장애인전용 주차구역,주출입구 단차없음,시각장애인 편의서비스","30,500",127.175810450649,37.6055031059771,정좌표
224,남양주체육문화센터,류성택,031-560-1301,경기도 남양주시 다산지금로 91 남양주체육문화센터(이패동),1명,4442 ㎡,헬스,청각/언어,[12월] 헬스(성인),06:00 ~ 21:50,"월,화,수,목,금,토,일","박지영,,김남승,,김민정",2020.12.01 ~ 2020.12.10,미지원,"장애인 화장실,장애인용 엘리베이터,장애인전용 주차구역,주출입구 단차없음,시각장애인 편의서비스","30,500",127.175810450649,37.6055031059771,정좌표
225,남해태권도체육관,최향록,061-242-8726,전라남도 목포시 청호로130번길 11-2 3층 남해체육관(산정동),2명,214876033 ㎡,태권도,"청각/언어, 지적/자폐, 기타",[12월] 태권도,14:00 ~ 21:00,"월,화,수,목,금","최향록,,서민수",2020.12.01 ~ 2020.12.10,지원,,"80,000",126.377612265533,34.8043855827613,정좌표
226,내수택견전수관,,043-218-4566,충북 청주시 청원구 내수읍 내수로 627(내수리 241) 신한 상가 2층,명, ㎡,기타종목,"청각/언어, 지적/자폐",[12월] 장애인 택견 교실,14:30 ~ 15:30,"월,화,수,목,금",이미란,2020.12.01 ~ 2020.12.10,미지원,,"110,000",127.529212821406,36.7197550529826,정좌표
227,내아이발달센터,이기태,070-7604-2468,"경기도 성남시 수정구 위례광장로 19 708호,710호,711호(창곡동)",2명,298 ㎡,기타종목,"지체, 청각/언어, 지적/자폐, 뇌병변",[12월] 특수체육,13:00 ~ 20:00,"월,화,수,목,금,토","이진성,,조성현",2020.12.01 ~ 2020.12.10,지원,"장애인 화장실,장애인용 엘리베이터,장애인전용 주차구역,주출입구 단차없음","200,000",127.140442828566,37.4656915493762,정좌표
228,녹양경기태권도,김성종,031-855-6900,경기도 의정부시 체육로 304 녹양프라자 7층 경기태권도(녹양동),2명,100 ㎡,태권도,청각/언어,[12월] 태권도,19:00 ~ 20:00,"월,화,수,목,금",김성종,2020.12.01 ~ 2020.12.10,지원,"장애인 화장실,장애인용 엘리베이터,장애인전용 주차구역,주출입구 단차없음","80,000",127.041350888803,37.7609739437013,정좌표
229,능금탁구교실,최유진,041-331-3959,충남 예산군 예산읍 산성공원1길 27 2층 능금탁구교실,1명,42 ㎡,탁구,"지체, 지적/자폐",[12월] 탁구교실,09:00 ~ 11:00,"월,화,수,목,금,토,일",탁구,2020.12.01 ~ 2020.12.10,미지원,,"80,000",126.832981303594,36.6925460263478,정좌표
230,다니생활체육관,문선식,031-411-6303,경기도 시흥시 마산로 43 다니생활체육관(조남동),10명,987 ㎡,기타종목,기타,[12월] 생활요가,10:00 ~ 10:50,"월,수,금",주은출,2020.12.01 ~ 2020.12.10,미지원,"장애인 화장실,장애인용 엘리베이터,장애인전용 주차구역","30,000",126.856431065151,37.3758121378364,정좌표
231,다니생활체육관,문선식,031-411-6303,경기도 시흥시 마산로 43 다니생활체육관(조남동),10명,987 ㎡,기타종목,기타,[12월] 치유요가,20:10 ~ 21:00,"화,목",이명은,2020.12.01 ~ 2020.12.10,미지원,"장애인 화장실,장애인용 엘리베이터,장애인전용 주차구역","30,000",126.856431065151,37.3758121378364,정좌표
232,다니생활체육관,문선식,031-411-6303,경기도 시흥시 마산로 43 다니생활체육관(조남동),10명,987 ㎡,필라테스,"지체, 시각, 청각/언어, 지적/자폐, 뇌병변, 기타",[12월] 필라테스,20:00 ~ 20:50,"월,화,수,목,금",이명은,2020.12.01 ~ 2020.12.10,미지원,"장애인 화장실,장애인용 엘리베이터,장애인전용 주차구역","30,000",126.856431065151,37.3758121378364,정좌표
233,다모여태권스쿨,성명희,062-385-0591,"광주광역시 서구 금화로115번길 9 상가2층 다모여태권스쿨(금호동, 한국아파트)",2명,132 ㎡,태권도,"지체, 지적/자폐",[12월] 태권도,15:30 ~ 20:30,"월,화,수,목,금",최하준,2020.12.01 ~ 2020.12.10,지원,,"80,000",126.860883560238,35.1333625719631,정좌표
234,다사랑태권도,곽정순,042-283-7222,대전시 동구 천동 520번지 월드빌딩 4층,명, ㎡,태권도,"청각/언어, 지적/자폐",[12월] 태권도,14:00 ~ 16:00,"월,화,수,목,금",장경식,2020.12.01 ~ 2020.12.10,지원,,"80,000",127.447442397799,36.3163071424774,정좌표
235,다솜운동발달센터,이현주,02-354-5943,서울특별시 은평구 서오릉로 31 4층 다솜운동발달센터(녹번동),5명,237 ㎡,기타종목,"청각/언어, 지적/자폐, 기타",[12월] 특수체육,09:00 ~ 19:00,"월,화,수,목,금,토",이현주,2020.12.01 ~ 2020.12.10,지원,"주출입구 단차없음,시각장애인 편의서비스","80,000",126.924821346895,37.6037547426812,정좌표
236,다이몬휘트니스 천곡점,박효근,010-5793-8844,울산광역시 북구 아진로 94 아진프라자 3층 다이몬휘트니스(천곡동),5명,445 ㎡,헬스,"시각, 청각/언어",[12월] 헬스 에어로빅 스피닝 점핑,08:30 ~ 23:00,"월,화,수,목,금,토",박효근,2020.12.01 ~ 2020.12.10,미지원,"장애인 화장실,장애인전용 주차구역","80,000",129.338223011094,35.6311359383926,정좌표
237,다이몬휘트니스 호계점,박효근,010-3919-0987,울산광역시 북구 제내1길 2 필그린쇼핑센터 4층 다이몬휘트니스(신천동),2명,495 ㎡,헬스,"시각, 청각/언어, 기타",[12월] 헬스 스피닝 점핑 에어로빅 줌바,08:30 ~ 23:00,"월,화,수,목,금,토",박효성,2020.12.01 ~ 2020.12.10,미지원,장애인용 엘리베이터,"80,000",129.351374048644,35.6313019300092,정좌표
238,다지기 아동발달센터,김경호,02-416-2086,경기도 안산시 상록구 샘골로 119 우석프라자 2층,2명,141 ㎡,배드민턴,지적/자폐,[12월] 공맞추기,15:00 ~ 19:00,"화,목","김경호,,송동혁",2020.12.01 ~ 2020.12.10,미지원,"장애인 화장실,장애인용 엘리베이터,장애인전용 주차구역","80,000",126.862736273532,37.2945555989113,정좌표
239,다지기 아동발달센터,김경호,02-416-2086,경기도 안산시 상록구 샘골로 119 우석프라자 2층,2명,141 ㎡,기타종목,지적/자폐,[12월] 즐거운점프,15:00 ~ 19:00,"월,수,금","김경호,,송동혁",2020.12.01 ~ 2020.12.10,미지원,"장애인 화장실,장애인용 엘리베이터,장애인전용 주차구역","80,000",126.862736273532,37.2945555989113,정좌표
240,단국대 튼튼i 태권스쿨,김인규,053-356-8879,대구광역시 북구 침산남로19길 2 3층 튼튼아이태권도(침산동),2명,40 ㎡,태권도,"청각/언어, 지적/자폐",[12월] 태권도,10:00 ~ 12:00,"월,화,수,목,금",김인규,2020.12.01 ~ 2020.12.10,지원,장애인용 엘리베이터,"80,000",128.58691646404,35.889427934954,정좌표
241,달서복싱.이곡헬스,정희준,010-4968-5247,대구광역시 달서구 달구벌대로 1328 4층 (주)디에스그룹(이곡동),2명,178 ㎡,헬스,"시각, 청각/언어, 지적/자폐, 기타",[12월] 달서 신나는 운동교실 ,10:00 ~ 23:00,"월,화,수,목,금","정희준,,손예지,,,윤채아",2020.12.01 ~ 2020.12.10,미지원,,"80,000",128.51251544837,35.8506425212832,정좌표
242,달서복싱.이곡헬스,정희준,010-4968-5247,대구광역시 달서구 달구벌대로 1328 4층 (주)디에스그룹(이곡동),2명,178 ㎡,복싱,"시각, 청각/언어, 지적/자폐, 기타",[12월] 신나는복싱교실.운동,10:00 ~ 23:00,"월,화,수,목,금","정희준,,손예지,,윤채아",2020.12.01 ~ 2020.12.10,미지원,,"80,000",128.51251544837,35.8506425212832,정좌표
243,대건합기도,배종호,031-591-1397,"경기도 남양주시 호평로 94 후문상가 301(호평동, 금강아파트)",4명,100 ㎡,합기도,기타,[12월] 합기도,13:00 ~ 21:00,"월,화,수,목,금",배종호,2020.12.01 ~ 2020.12.10,지원,,"80,000",127.251672554101,37.6556306127205,정좌표
244,대구 시설공단 서재문화체육센터,김호경,053-656-0462,대구광역시 달서구 앞산순환로 206 대덕승마장 ,4명,32061 ㎡,승마,"지체, 지적/자폐, 기타",[12월] 재활승마,09:40 ~ 17:30,"화,수,목,금,토,일",이지현,2020.12.01 ~ 2020.12.10,미지원,"장애인 화장실,장애인전용 주차구역","45,000",128.554876258073,35.8219089837169,정좌표
245,대구 시설공단 서재문화체육센터,김호경,053-656-0462,대구광역시 달서구 앞산순환로 206 대덕승마장 ,4명,32061 ㎡,승마,"지체, 지적/자폐, 기타",[12월] 재활승마,09:40 ~ 17:30,"화,수,목,금,토,일",이지현,2020.12.01 ~ 2020.12.10,미지원,"장애인 화장실,장애인전용 주차구역","45,000",128.554876258073,35.8219089837169,정좌표
246,대구 시설공단 서재문화체육센터,김호경,053-656-0462,대구광역시 달서구 앞산순환로 206 대덕승마장 ,4명,32061 ㎡,승마,"지체, 지적/자폐, 기타",[12월] 재활승마,09:40 ~ 17:30,"화,수,목,금,토,일",이지현,2020.12.01 ~ 2020.12.10,미지원,"장애인 화장실,장애인전용 주차구역","45,000",128.554876258073,35.8219089837169,정좌표
247,대구광역시달구벌재활스포츠센터,,053-523-2112,대구광역시 달서구 달구벌대로 291길 100 ,명, ㎡,수영,"지체, 지적/자폐",[12월] 돌고래수영교실,17:00 ~ 17:50,"월,수",홍성진,2020.12.01 ~ 2020.12.10,미지원,,"40,000",128.525460904051,35.8535473141055,정좌표
248,대구광역시장애인국민체육센터,권영진,02-795-8063,대구광역시 수성구 유니버시아드로42길 125 대구광역시장애인국민체육센터(대흥동),2명,220 ㎡,헬스,"지체, 시각, 청각/언어, 지적/자폐, 뇌병변, 기타",[12월] 장애인건강운동교실,09:00 ~ 12:00,"화,목",서희승,2020.12.01 ~ 2020.12.10,지원,"장애인 화장실,장애인용 엘리베이터,장애인전용 주차구역,주출입구 단차없음,휠체어 대여,시각장애인 편의서비스,청각장애인 편의서비스","23,000",128.684995531743,35.8252493794043,정좌표
249,대구광역시지적발달장애인복지협회 달성군지부,이미향,053-644-2356,"대구광역시 남구 중앙대로 219 특수통합교육관 다목적실 1, 2(대명동)",3명,210 ㎡,기타종목,"지적/자폐, 뇌병변",[12월] 심리운동재활서비스,09:00 ~ 21:00,"월,화,수,목,금,토",전재수,2020.12.01 ~ 2020.12.10,미지원,"장애인 화장실,장애인용 엘리베이터,장애인전용 주차구역,주출입구 단차없음,휠체어 대여,시각장애인 편의서비스,청각장애인 편의서비스","100,000",128.589798695442,35.8530440633142,정좌표
250,대구복싱다이어트클럽,이보경,053-636-8868,대구광역시 달서구 한실로 71 일성빌딩 4층(도원동),1명,343 ㎡,복싱,"지체, 청각/언어, 지적/자폐, 뇌병변",[12월] 복싱,10:30 ~ 23:00,"월,화,수,목,금",이보경,2020.12.01 ~ 2020.12.10,미지원,,"110,000",128.534498862937,35.8072642028678,정좌표
251,대구복싱다이어트클럽,이보경,053-636-8868,대구광역시 달서구 한실로 71 일성빌딩 4층(도원동),1명,343 ㎡,복싱,"지체, 청각/언어, 지적/자폐, 뇌병변",[12월] 복싱,10:30 ~ 23:00,"월,화,수,목,금",이보경,2020.12.01 ~ 2020.12.10,미지원,,"110,000",128.534498862937,35.8072642028678,정좌표
252,대구시설공단 대구승마힐링센터,김호경,053-656-0462,대구광역시 달서구 앞산순환로 206 대덕승마장 ,4명,32061 ㎡,승마,"지체, 지적/자폐, 기타",[12월] 재활승마,09:40 ~ 17:30,"화,수,목,금,토,일",이지현,2020.12.01 ~ 2020.12.10,미지원,"장애인 화장실,장애인전용 주차구역","45,000",128.554876258073,35.8219089837169,정좌표
253,대구시설공단 대구승마힐링센터,김호경,053-656-0462,대구광역시 달서구 앞산순환로 206 대덕승마장 ,4명,32061 ㎡,승마,"지체, 지적/자폐, 기타",[12월] 재활승마,09:40 ~ 17:30,"화,수,목,금,토,일",이지현,2020.12.01 ~ 2020.12.10,미지원,"장애인 화장실,장애인전용 주차구역","45,000",128.554876258073,35.8219089837169,정좌표
254,대구시설공단 대구승마힐링센터,김호경,053-656-0462,대구광역시 달서구 앞산순환로 206 대덕승마장 ,4명,32061 ㎡,승마,"지체, 지적/자폐, 기타",[12월] 재활승마,09:40 ~ 17:30,"화,수,목,금,토,일",이지현,2020.12.01 ~ 2020.12.10,미지원,"장애인 화장실,장애인전용 주차구역","45,000",128.554876258073,35.8219089837169,정좌표
255,대구시설공단 올림픽기념국민생활관,김호경,053-656-0462,대구광역시 달서구 앞산순환로 206 대덕승마장 ,4명,32061 ㎡,승마,"지체, 지적/자폐, 기타",[12월] 재활승마,09:40 ~ 17:30,"화,수,목,금,토,일",이지현,2020.12.01 ~ 2020.12.10,미지원,"장애인 화장실,장애인전용 주차구역","45,000",128.554876258073,35.8219089837169,정좌표
256,대구시설공단 올림픽기념국민생활관,김호경,053-656-0462,대구광역시 달서구 앞산순환로 206 대덕승마장 ,4명,32061 ㎡,승마,"지체, 지적/자폐, 기타",[12월] 재활승마,09:40 ~ 17:30,"화,수,목,금,토,일",이지현,2020.12.01 ~ 2020.12.10,미지원,"장애인 화장실,장애인전용 주차구역","45,000",128.554876258073,35.8219089837169,정좌표
257,대구시설공단 올림픽기념국민생활관,김호경,053-656-0462,대구광역시 달서구 앞산순환로 206 대덕승마장 ,4명,32061 ㎡,승마,"지체, 지적/자폐, 기타",[12월] 재활승마,09:40 ~ 17:30,"화,수,목,금,토,일",이지현,2020.12.01 ~ 2020.12.10,미지원,"장애인 화장실,장애인전용 주차구역","45,000",128.554876258073,35.8219089837169,정좌표
258,대구시설공단(두류수영장),김호경,053-656-0462,대구광역시 달서구 앞산순환로 206 대덕승마장 ,4명,32061 ㎡,승마,"지체, 지적/자폐, 기타",[12월] 재활승마,09:40 ~ 17:30,"화,수,목,금,토,일",이지현,2020.12.01 ~ 2020.12.10,미지원,"장애인 화장실,장애인전용 주차구역","45,000",128.554876258073,35.8219089837169,정좌표
259,대구시설공단(두류수영장),김호경,053-656-0462,대구광역시 달서구 앞산순환로 206 대덕승마장 ,4명,32061 ㎡,승마,"지체, 지적/자폐, 기타",[12월] 재활승마,09:40 ~ 17:30,"화,수,목,금,토,일",이지현,2020.12.01 ~ 2020.12.10,미지원,"장애인 화장실,장애인전용 주차구역","45,000",128.554876258073,35.8219089837169,정좌표
260,대구시설공단(두류수영장),김호경,053-656-0462,대구광역시 달서구 앞산순환로 206 대덕승마장 ,4명,32061 ㎡,승마,"지체, 지적/자폐, 기타",[12월] 재활승마,09:40 ~ 17:30,"화,수,목,금,토,일",이지현,2020.12.01 ~ 2020.12.10,미지원,"장애인 화장실,장애인전용 주차구역","45,000",128.554876258073,35.8219089837169,정좌표
261,대도태권도장,박경환,02-371-4610,"광주광역시 서구 화정로 87-1 3단지 상가 201호(쌍촌동, 시영아파트)",1명,131 ㎡,태권도,"지체, 시각, 청각/언어, 지적/자폐, 뇌병변, 기타","[12월] 태권도, 요가,줄넘기,격파등",10:00 ~ 21:00,"월,화,수,금",박경환,2020.12.01 ~ 2020.12.10,지원,"장애인전용 주차구역,주출입구 단차없음","120,000",126.867546688976,35.145625725648,정좌표
262,대동도장,신재상,02-475-3577,서울시 강동구 천중로29길 32 2층,2명,165 ㎡,기타종목,"시각, 청각/언어",[12월] 건강체조,13:00 ~ 22:00,"화,목",박균호,2020.12.01 ~ 2020.12.10,지원,,"80,000",127.137125531367,37.5430700351064,정좌표
263,대명체육관,홍기용,02-2207-9011,서울특별시 중랑구 봉화산로56길 153 대명프라자 309호 310호(신내동),1명,160 ㎡,유도,"청각/언어, 지적/자폐, 뇌병변",[12월] 유도,19:00 ~ 20:00,"월,화,수,목,금",홍기용,2020.12.01 ~ 2020.12.10,지원,"장애인전용 주차구역,주출입구 단차없음","140,000",127.096784874621,37.6014841025465,정좌표
264,대산태권도체육관,최치훈,053-952-6893,대구광역시 북구 연암로 170 4층 대산태권도체육관(산격동),1명,200 ㎡,태권도,"지체, 청각/언어, 지적/자폐, 기타",[12월] 태권도,15:20 ~ 16:20,"월,화,수,목,금",최치훈,2020.12.01 ~ 2020.12.10,지원,,"80,000",128.596440631855,35.8995808068847,정좌표
265,대산태권도체육관,최치훈,053-952-6893,대구광역시 북구 연암로 170 4층 대산태권도체육관(산격동),1명,200 ㎡,태권도,"지체, 청각/언어, 지적/자폐, 기타",[12월] 태권도,15:20 ~ 16:20,"월,화,수,목,금",최치훈,2020.12.01 ~ 2020.12.10,지원,,"80,000",128.596440631855,35.8995808068847,정좌표
266,대산태권도체육관,최치훈,053-952-6893,대구광역시 북구 연암로 170 4층 대산태권도체육관(산격동),1명,200 ㎡,태권도,"지체, 청각/언어, 지적/자폐, 기타",[12월] 태권도,15:20 ~ 16:20,"월,화,수,목,금",최치훈,2020.12.01 ~ 2020.12.10,지원,,"80,000",128.596440631855,35.8995808068847,정좌표
267,대산태권도체육관,최치훈,053-952-6893,대구광역시 북구 연암로 170 4층 대산태권도체육관(산격동),1명,200 ㎡,태권도,"지체, 청각/언어, 지적/자폐, 기타",[12월] 태권도,15:20 ~ 16:20,"월,화,수,목,금",최치훈,2020.12.01 ~ 2020.12.10,지원,,"80,000",128.596440631855,35.8995808068847,정좌표
268,대연킴스볼링,권성희,02-625-8704,부산광역시 남구 석포로 116 대연킴스볼링장(대연동),3명,2000 ㎡,볼링,"지체, 시각, 청각/언어, 지적/자폐",[12월] 볼링,13:00 ~ 14:30,"월,수,토","이현정,,오태윤,,이주남",2020.12.01 ~ 2020.12.10,지원,"장애인 화장실,장애인용 엘리베이터,장애인전용 주차구역,시각장애인 편의서비스,청각장애인 편의서비스","80,000",129.091161000187,35.12769317901,정좌표
269,대장부 태권도,석태호,053-956-8021,"대구광역시 북구 동북로 345 상가 401동 2층 207호(복현동, 복현푸르지오)",1명,221 ㎡,태권도,"청각/언어, 지적/자폐, 기타",[12월] 태권도,14:00 ~ 19:00,"월,화,수,목,금",석태호,2020.12.01 ~ 2020.12.10,지원,"장애인 화장실,장애인용 엘리베이터,장애인전용 주차구역","80,000",128.629145549616,35.8916968238714,정좌표
270,대전mma,황진수,02-242-7989,대전광역시 중구 충무로107번길 122 3층 체육관(대흥동),1명,60 ㎡,기타종목,기타,[12월] 주짓수 복싱,14:00 ~ 23:00,"월,화,수,목,금",황진수,2020.12.01 ~ 2020.12.10,미지원,장애인전용 주차구역,"80,000",127.426063239422,36.3233224025806,정좌표
271,대전복싱클럽,,042-624-1848,"대전광역시 대덕구 중리북로 4 (법동, 동아빌딩) 동아빌딩3층",명, ㎡,복싱,"청각/언어, 지적/자폐",[12월] 복싱, ~ ,"월,화,수,목,금",,2020.12.01 ~ 2020.12.31,미지원,,"120,000",127.429503697385,36.3674143972699,정좌표
272,대전시설관리공단 장애인체육센터,설동승,02-724-3570,대전광역시 유성구 덕명로56번길 85 장애인체육센터(덕명동),1명,126 ㎡,헬스,"지체, 청각/언어, 지적/자폐, 기타",[12월] 헬스,09:00 ~ 21:00,"월,화,수,목,금",장석재,2020.12.01 ~ 2020.12.10,미지원,"장애인 화장실,장애인용 엘리베이터,장애인전용 주차구역,주출입구 단차없음,휠체어 대여,시각장애인 편의서비스,청각장애인 편의서비스","20,000",127.30734678247,36.3537917729284,정좌표
273,대전시설관리공단 장애인체육센터,설동승,02-724-3570,대전광역시 유성구 덕명로56번길 85 장애인체육센터(덕명동),1명,126 ㎡,헬스,"지체, 시각, 청각/언어, 지적/자폐, 기타",[12월] 헬스(보호자 동반),09:00 ~ 21:00,"월,화,수,목,금,토,일",장석재,2020.12.01 ~ 2020.12.10,미지원,"장애인 화장실,장애인용 엘리베이터,장애인전용 주차구역,주출입구 단차없음,휠체어 대여,시각장애인 편의서비스,청각장애인 편의서비스","20,000",127.30734678247,36.3537917729284,정좌표
274,대천체육관,백형규,051-365-3040,부산광역시 북구 양달로 70 대광빌딩 5층 대천태권도(화명동),3명,396 ㎡,태권도,"지적/자폐, 기타",[12월] 태권도,14:30 ~ 22:10,"월,화,수,목,금",백형규,2020.12.01 ~ 2020.12.10,지원,"장애인 화장실,장애인전용 주차구역,주출입구 단차없음,휠체어 대여","80,000",129.020826685726,35.2439740592343,정좌표
275,대치통합발달심리센터,김철희,010-5621-7779,서울특별시 강남구 선릉로 320 성진빌딩 지하1층,3명,281 ㎡,기타종목,"지체, 시각, 청각/언어, 지적/자폐, 뇌병변, 기타",[12월] 수중운동,09:00 ~ 18:00,"월,화,수,목,금,토","하재민,,박인호",2020.12.01 ~ 2020.12.10,지원,장애인 화장실,"80,000",127.052193231785,37.4982774480245,정좌표
276,대치통합발달심리센터,김철희,010-5621-7779,서울특별시 강남구 선릉로 320 성진빌딩 지하1층,3명,281 ㎡,기타종목,"지체, 시각, 청각/언어, 지적/자폐, 뇌병변, 기타",[12월] 심리운동,09:00 ~ 18:00,"월,화,수,목,금,토","하재민,,박인호",2020.12.01 ~ 2020.12.10,지원,장애인 화장실,"80,000",127.052193231785,37.4982774480245,정좌표
277,대치통합발달심리센터,김철희,010-5621-7779,서울특별시 강남구 선릉로 320 성진빌딩 지하1층,3명,281 ㎡,기타종목,"지체, 시각, 청각/언어, 지적/자폐, 뇌병변, 기타",[12월] 특수체육,09:00 ~ 18:00,"월,화,수,목,금,토","하재민,,박인호",2020.12.01 ~ 2020.12.10,지원,장애인 화장실,"80,000",127.052193231785,37.4982774480245,정좌표
278,대평체육관,김병철,053-558-6574,대구광역시 서구 문화로49길 31 3층 대평태권도,1명,198 ㎡,태권도,"지체, 청각/언어, 지적/자폐, 기타",[12월] 신나는 태권도,11:00 ~ 22:00,"화,목",김병철,2020.12.01 ~ 2020.12.10,지원,,"80,000",128.559000544542,35.878492368167,정좌표
279,대평체육관,김병철,053-558-6574,대구광역시 서구 문화로49길 31 3층 대평태권도,1명,198 ㎡,태권도,"지체, 청각/언어, 지적/자폐, 기타",[12월] 신나는태권도교실,13:00 ~ 22:00,"월,화,수,목,금",김병철,2020.12.01 ~ 2020.12.10,지원,,"80,000",128.559000544542,35.878492368167,정좌표
280,대평체육관,김병철,053-558-6574,대구광역시 서구 문화로49길 31 3층 대평태권도,1명,198 ㎡,태권도,"지체, 청각/언어, 지적/자폐, 기타",[12월] 신나는태권도교실,13:00 ~ 22:00,"월,수,금",김병철,2020.12.01 ~ 2020.12.10,지원,,"80,000",128.559000544542,35.878492368167,정좌표
281,대한공수도(Karate),정일홍,051-744-8890,부산광역시 해운대구 좌동순환로 506 501호(중동),2명,16686 ㎡,기타종목,"지체, 청각/언어, 지적/자폐, 뇌병변, 기타",[12월] 공수도(가라데)와 신체활동,07:00 ~ 14:00,"월,화,수,목,금,토","정일홍,,강주성",2020.12.01 ~ 2020.12.10,미지원,,"80,000",129.17811269854,35.1737511552877,인근좌표
282,대한공수도(Karate),정일홍,051-744-8890,부산광역시 해운대구 좌동순환로 506 501호(중동),2명,16686 ㎡,기타종목,"지체, 청각/언어, 지적/자폐, 뇌병변, 기타",[12월] 권격도(킥복싱),07:00 ~ 14:00,"월,화,수,목,금,토,일","정일홍,,강주성",2020.12.01 ~ 2020.12.10,미지원,,"80,000",129.17811269854,35.1737511552877,인근좌표
283,대한민국다이어트센타,윤현기,053-201-9800,대구광역시 달서구 성당로 189 2층 헬스장(성당동),1명,198 ㎡,헬스,"지체, 청각/언어, 지적/자폐, 기타","[12월] 헬스,다이어트,건강 ",07:00 ~ 23:00,"월,화,수,목,금","윤현기,관장",2020.12.01 ~ 2020.12.10,미지원,주출입구 단차없음,"80,000",128.57150194049,35.8501140064228,정좌표
284,대한태권도,박미정,053-963-0787,대구광역시 동구 율하동로24길 7 5층(신기동),1명,214 ㎡,태권도,"지체, 시각, 청각/언어, 지적/자폐, 뇌병변, 기타",[12월] 태권도,14:00 ~ 21:30,"월,수,금",최병기,2020.12.01 ~ 2020.12.10,지원,,"80,000",128.702994766004,35.8699036844219,정좌표
285,대한태권도,박미정,053-963-0787,대구광역시 동구 율하동로24길 7 5층(신기동),1명,214 ㎡,태권도,"청각/언어, 지적/자폐, 기타",[12월] 태권도,14:00 ~ 21:30,"월,화,수,목,금",최병기,2020.12.01 ~ 2020.12.10,지원,,"80,000",128.702994766004,35.8699036844219,정좌표
286,대한합기도승리관 신흥수련관,최길섭,061-281-0044,"전라남도 목포시 신흥로 13 우성상가 2층 202호(상동, 우성아파트)",1명,34 ㎡,합기도,기타,[12월] 대한합기도승리관신흥수련관,15:00 ~ 23:30,"월,화,수,목,금",최길섭,2020.12.01 ~ 2020.12.10,지원,,"110,000",126.421445150427,34.8033234657082,정좌표
287,더스포츠센터,박성옥,051-521-7100,"부산광역시 해운대구 선수촌로 122 상가동 지하1층(반여동, 아시아선수촌아파트)",5명,1500 ㎡,수영,"지체, 청각/언어, 지적/자폐",[12월] 수영개인레슨,06:00 ~ 22:00,"월,화,수,목,금",김경재,2020.12.01 ~ 2020.12.10,지원,장애인전용 주차구역,"400,000",129.12213550997,35.2002238460762,정좌표
288,더스포츠센터,박성옥,051-521-7100,"부산광역시 해운대구 선수촌로 122 상가동 지하1층(반여동, 아시아선수촌아파트)",5명,1500 ㎡,헬스,"청각/언어, 지적/자폐",[12월] 유산소및근력강화 운동,06:00 ~ 12:00,"월,화,수,목,금,토",허종진,2020.12.01 ~ 2020.12.10,지원,장애인전용 주차구역,"400,000",129.12213550997,35.2002238460762,정좌표
289,더원 행동재활센터,이승엽,032-214-2004,경기도 부천시 길주로 273 604호 더원(중동),6명,160 ㎡,기타종목,"지체, 시각, 청각/언어, 지적/자폐, 뇌병변, 기타",[12월] 건강 및 체력관리,17:00 ~ 17:50,화,권용성,2020.12.01 ~ 2020.12.10,미지원,"장애인 화장실,장애인용 엘리베이터,장애인전용 주차구역,주출입구 단차없음","120,000",126.772835115397,37.5039907716459,정좌표
290,더원 행동재활센터,이승엽,032-214-2004,경기도 부천시 길주로 273 604호 더원(중동),6명,160 ㎡,기타종목,"지체, 시각, 청각/언어, 지적/자폐, 뇌병변, 기타",[12월] 건강 및 체력관리,18:00 ~ 18:50,화,이세헌,2020.12.01 ~ 2020.12.10,미지원,"장애인 화장실,장애인용 엘리베이터,장애인전용 주차구역,주출입구 단차없음","120,000",126.772835115397,37.5039907716459,정좌표
291,더원 행동재활센터,이승엽,032-214-2004,경기도 부천시 길주로 273 604호 더원(중동),6명,160 ㎡,기타종목,"지체, 시각, 청각/언어, 지적/자폐, 뇌병변, 기타",[12월] 건강관리 및 농구,17:00 ~ 17:50,"화,금",권용성,2020.12.01 ~ 2020.12.10,미지원,"장애인 화장실,장애인용 엘리베이터,장애인전용 주차구역,주출입구 단차없음","120,000",126.772835115397,37.5039907716459,정좌표
292,더원 행동재활센터,이승엽,032-214-2004,경기도 부천시 길주로 273 604호 더원(중동),6명,160 ㎡,농구,"지체, 시각, 청각/언어, 지적/자폐, 뇌병변, 기타",[12월] 농구,17:00 ~ 17:50,목,권용성,2020.12.01 ~ 2020.12.10,미지원,"장애인 화장실,장애인용 엘리베이터,장애인전용 주차구역,주출입구 단차없음","120,000",126.772835115397,37.5039907716459,정좌표
293,더원 행동재활센터,이승엽,032-214-2004,경기도 부천시 길주로 273 604호 더원(중동),6명,160 ㎡,농구,"지체, 시각, 청각/언어, 지적/자폐, 뇌병변, 기타",[12월] 농구,18:00 ~ 18:50,목,이세헌,2020.12.01 ~ 2020.12.10,미지원,"장애인 화장실,장애인용 엘리베이터,장애인전용 주차구역,주출입구 단차없음","120,000",126.772835115397,37.5039907716459,정좌표
294,더원 행동재활센터,이승엽,032-214-2004,경기도 부천시 길주로 273 604호 더원(중동),6명,160 ㎡,기타종목,"지체, 시각, 청각/언어, 지적/자폐, 뇌병변, 기타",[12월] 사회성 및 놀이운동,15:00 ~ 15:40,화,권용성,2020.12.01 ~ 2020.12.10,미지원,"장애인 화장실,장애인용 엘리베이터,장애인전용 주차구역,주출입구 단차없음","120,000",126.772835115397,37.5039907716459,정좌표
295,더원 행동재활센터,이승엽,032-214-2004,경기도 부천시 길주로 273 604호 더원(중동),6명,160 ㎡,기타종목,"지체, 시각, 청각/언어, 지적/자폐, 뇌병변, 기타",[12월] 사회성 및 놀이운동,16:00 ~ 16:50,화,권용성,2020.12.01 ~ 2020.12.10,미지원,"장애인 화장실,장애인용 엘리베이터,장애인전용 주차구역,주출입구 단차없음","120,000",126.772835115397,37.5039907716459,정좌표
296,더원 행동재활센터,이승엽,032-214-2004,경기도 부천시 길주로 273 604호 더원(중동),6명,160 ㎡,기타종목,"지체, 시각, 청각/언어, 지적/자폐, 뇌병변, 기타",[12월] 특수체육,14:00 ~ 14:50,토,이세헌,2020.12.01 ~ 2020.12.10,미지원,"장애인 화장실,장애인용 엘리베이터,장애인전용 주차구역,주출입구 단차없음","120,000",126.772835115397,37.5039907716459,정좌표
297,더짐피트니스,최연욱,02-338-9119,부산광역시 북구 백양대로 1017 한성빌딩4층(구포동),6명,260 ㎡,기타종목,"청각/언어, 기타",[12월] 플라잉요가 오전 화 목,11:00 ~ 11:50,"화,목",진유경,2020.12.01 ~ 2020.12.10,미지원,,"90,000",128.994546870537,35.1967304317152,정좌표
298,더짐피트니스,최연욱,02-338-9119,부산광역시 북구 백양대로 1017 한성빌딩4층(구포동),6명,260 ㎡,필라테스,"청각/언어, 기타",[12월] 플라잉요가 저녁 월 수 금,19:00 ~ 19:50,"월,수,금",진유경,2020.12.01 ~ 2020.12.10,미지원,,"90,000",128.994546870537,35.1967304317152,정좌표
299,더짐피트니스,최연욱,02-338-9119,부산광역시 북구 백양대로 1017 한성빌딩4층(구포동),6명,260 ㎡,필라테스,"청각/언어, 기타",[12월] 필라테스 오전  월 수금,11:00 ~ 11:50,"월,수,금",진유경,2020.12.01 ~ 2020.12.10,미지원,,"90,000",128.994546870537,35.1967304317152,정좌표
300,더짐피트니스,최연욱,02-338-9119,부산광역시 북구 백양대로 1017 한성빌딩4층(구포동),6명,260 ㎡,필라테스,"청각/언어, 기타",[12월] 필라테스 저녁 매일,20:00 ~ 20:50,"월,화,수,목,금","진유경,정서현",2020.12.01 ~ 2020.12.10,미지원,,"90,000",128.994546870537,35.1967304317152,정좌표
301,더짐피트니스,최연욱,02-338-9119,부산광역시 북구 백양대로 1017 한성빌딩4층(구포동),6명,260 ㎡,필라테스,"청각/언어, 기타",[12월] 필라테스 저녁 월 수 금,20:00 ~ 20:50,"월,수,금",진유경,2020.12.01 ~ 2020.12.10,미지원,,"90,000",128.994546870537,35.1967304317152,정좌표
302,더짐피트니스,최연욱,02-338-9119,부산광역시 북구 백양대로 1017 한성빌딩4층(구포동),6명,260 ㎡,필라테스,"청각/언어, 기타",[12월] 필라테스 저녁 화 목,19:00 ~ 19:55,"화,목",정서현,2020.12.01 ~ 2020.12.10,미지원,,"90,000",128.994546870537,35.1967304317152,정좌표
303,더짐피트니스,최연욱,02-338-9119,부산광역시 북구 백양대로 1017 한성빌딩4층(구포동),6명,260 ㎡,필라테스,"청각/언어, 기타",[12월] 필라테스 저녁 화 목,20:00 ~ 20:50,"화,목",정서현,2020.12.01 ~ 2020.12.10,미지원,,"90,000",128.994546870537,35.1967304317152,정좌표
304,더짐피트니스,최연욱,02-338-9119,부산광역시 북구 백양대로 1017 한성빌딩4층(구포동),6명,260 ㎡,필라테스,"청각/언어, 기타",[12월] 필라테스와 플라잉요가(오전),11:00 ~ 11:50,"월,화,수,목,금",진유경,2020.12.01 ~ 2020.12.10,미지원,,"90,000",128.994546870537,35.1967304317152,정좌표
305,더짐피트니스,최연욱,02-338-9119,부산광역시 북구 백양대로 1017 한성빌딩4층(구포동),6명,260 ㎡,필라테스,"청각/언어, 기타",[12월] 필라테스와 플라잉요가(저녁),19:00 ~ 19:50,"월,화,수,목,금","진유경,정서현",2020.12.01 ~ 2020.12.10,미지원,,"90,000",128.994546870537,35.1967304317152,정좌표
306,더행복한잇층가필라테스,강현주,033-264-1379,강원도 춘천시 퇴계로 199 경림빌딩 2층 잇츠요가필라테스(석사동),2명,109 ㎡,필라테스,"지체, 기타",[12월] 릴렉싱 필라테스,10:00 ~ 20:30,"월,화,수,목,금","강현주,,안도화",2020.12.01 ~ 2020.12.10,지원,"장애인 화장실,장애인용 엘리베이터,장애인전용 주차구역,주출입구 단차없음,시각장애인 편의서비스","80,000",127.740737944445,37.8570712102919,정좌표
307,더행복한잇층가필라테스,강현주,033-264-1379,강원도 춘천시 퇴계로 199 경림빌딩 2층 잇츠요가필라테스(석사동),2명,109 ㎡,요가,지체,[12월] 지체장애)몸과 마음의 회복을 위한 힐링 요가,10:00 ~ 11:00,토,"강현주,,안도화",2020.12.01 ~ 2020.12.10,지원,"장애인 화장실,장애인용 엘리베이터,장애인전용 주차구역,주출입구 단차없음,시각장애인 편의서비스","80,000",127.740737944445,37.8570712102919,정좌표
308,더행복한잇층가필라테스,강현주,033-264-1379,강원도 춘천시 퇴계로 199 경림빌딩 2층 잇츠요가필라테스(석사동),2명,109 ㎡,요가,기타,[12월] 파킨스환자대상) 회복을 위한 치유요가,13:00 ~ 14:00,토,강현주,2020.12.01 ~ 2020.12.10,지원,"장애인 화장실,장애인용 엘리베이터,장애인전용 주차구역,주출입구 단차없음,시각장애인 편의서비스","80,000",127.740737944445,37.8570712102919,정좌표
309,더행복한잇층가필라테스,강현주,033-264-1379,강원도 춘천시 퇴계로 199 경림빌딩 2층 잇츠요가필라테스(석사동),2명,109 ㎡,요가,"지체, 기타",[12월] 힐링테라피 요가,10:00 ~ 20:30,"월,화,수,목,금","강현주,,안도화",2020.12.01 ~ 2020.12.10,지원,"장애인 화장실,장애인용 엘리베이터,장애인전용 주차구역,주출입구 단차없음,시각장애인 편의서비스","80,000",127.740737944445,37.8570712102919,정좌표
310,덕천이글스유도관 ,최주영,051-338-5026,부산광역시 북구 함박봉로7번길 49 2층,명, ㎡,유도,"지체, 시각, 청각/언어, 지적/자폐, 뇌병변, 기타",[12월] 뉴스포츠,14:00 ~ 22:00,"월,화,수,목,금,토",최주영,2020.12.01 ~ 2020.12.10,미지원,,"80,000",129.022710724097,35.2111523084066,정좌표
311,덕천이글스유도관 ,최주영,051-338-5026,부산광역시 북구 함박봉로7번길 49 2층,명, ㎡,유도,"지체, 시각, 청각/언어, 지적/자폐, 뇌병변, 기타",[12월] 유도, ~ ,"월,화,수,목,금",,2020.12.01 ~ 2020.12.10,미지원,,"80,000",129.022710724097,35.2111523084066,정좌표
312,덕천이글스유도관 ,최주영,051-338-5026,부산광역시 북구 함박봉로7번길 49 2층,명, ㎡,유도,"시각, 청각/언어",[12월] 전문 시각 청각 유도팀,08:00 ~ 23:00,"월,화,수,목,금,토",최주영,2020.12.01 ~ 2020.12.10,미지원,,"80,000",129.022710724097,35.2111523084066,정좌표
313,도깨비장군활터 (국궁 / 양궁),김현근,02-747-7466,제주시 1100로 2894-63(노형동) 도깨비장군활터,1명,2100 ㎡,기타종목,"지체, 청각/언어, 지적/자폐",[12월] 장애인 양궁 교실,10:00 ~ 18:00,"월,화,수,목,토,일",김현근,2020.12.01 ~ 2020.12.10,미지원,"장애인 화장실,장애인전용 주차구역,주출입구 단차없음","80,000",126.487226257407,33.4511963136807,정좌표
314,도깨비장군활터 (국궁 / 양궁),김현근,02-747-7466,제주시 1100로 2894-63(노형동) 도깨비장군활터,1명,2100 ㎡,기타종목,"지체, 청각/언어, 지적/자폐",[12월] 장애인 전통활쏘기 교실,10:00 ~ 18:00,"월,화,수,목,금,토,일",김현근,2020.12.01 ~ 2020.12.10,미지원,"장애인 화장실,장애인전용 주차구역,주출입구 단차없음","80,000",126.487226257407,33.4511963136807,정좌표
315,도원무술관 2관,박경수,055-325-1202,경상남도 김해시 김해대로2491번길 27 2층 도원무술관 2관(삼정동),1명,40 ㎡,합기도,기타,[12월] 합기도,14:00 ~ 22:30,"월,화,수,목,금",박경수,2020.12.01 ~ 2020.12.10,지원,,"80,000",128.898498282451,35.2303509571534,정좌표
316,도을요가필라테스,김회원,02-261-4560,광주광역시 북구 면앙로 52 (2층) 도을요가필라테스(문흥동),4명,132 ㎡,요가,"청각/언어, 지적/자폐, 기타",[12월] 요가필라테스,09:00 ~ 21:50,"월,화,수,목,금","강연경,,이규리,,최시연",2020.12.01 ~ 2020.12.10,미지원,,"80,000",126.917718797878,35.178942702951,정좌표
317,동광태권도장,김광용,055-333-5735,경상남도 김해시 호계로500번길 3-9(동상동) 1층,1명,165 ㎡,태권도,"지체, 시각, 청각/언어, 지적/자폐, 뇌병변, 기타",[12월] 태권도교실,08:00 ~ 09:00,"월,화,수,목,금",김광용,2020.12.01 ~ 2020.12.10,지원,,"130,000",128.884851909308,35.2354465943259,정좌표
318,동구국민체육센터,김종호,062-351-0076,광주광역시 동구 필문대로205번길 17 동구국민체육센터(산수동),3명,3519685 ㎡,수영,"시각, 청각/언어, 지적/자폐",[12월] 검도교실,19:00 ~ 20:00,"월,수,금",김종호,2020.12.01 ~ 2020.12.10,미지원,"장애인 화장실,장애인용 엘리베이터,장애인전용 주차구역,주출입구 단차없음,시각장애인 편의서비스","80,000",126.932741757226,35.1523134409093,정좌표
319,동구국민체육센터,김종호,062-351-0076,광주광역시 동구 필문대로205번길 17 동구국민체육센터(산수동),3명,3519685 ㎡,수영,"지체, 시각, 청각/언어, 지적/자폐, 뇌병변",[12월] 요가+스트레칭,09:50 ~ 10:40,"월,수,금",정형숙,2020.12.01 ~ 2020.12.10,미지원,"장애인 화장실,장애인용 엘리베이터,장애인전용 주차구역,주출입구 단차없음,시각장애인 편의서비스","80,000",126.932741757226,35.1523134409093,정좌표
320,동구국민체육센터,김종호,062-351-0076,광주광역시 동구 필문대로205번길 17 동구국민체육센터(산수동),3명,3519685 ㎡,수영,"시각, 청각/언어",[12월] 헬스,06:00 ~ 19:00,"월,수,금",양형준,2020.12.01 ~ 2020.12.10,미지원,"장애인 화장실,장애인용 엘리베이터,장애인전용 주차구역,주출입구 단차없음,시각장애인 편의서비스","80,000",126.932741757226,35.1523134409093,정좌표
321,동구아름다운복지관,최재천,042-280-9519,대전광역시 동구 안골로 49 동구아름다운복지관(구도동),2명,2765 ㎡,검도,"지체, 시각, 청각/언어, 지적/자폐, 뇌병변, 기타",[12월] 꿈꾸는작은화랑(검도교실),15:00 ~ 16:00,화,류지은,2020.12.01 ~ 2020.12.10,미지원,"장애인 화장실,장애인용 엘리베이터,장애인전용 주차구역,주출입구 단차없음,휠체어 대여,시각장애인 편의서비스","20,000",127.472249146021,36.2681154529683,정좌표
322,동구아름다운복지관,최재천,042-280-9519,대전광역시 동구 안골로 49 동구아름다운복지관(구도동),2명,2765 ㎡,기타종목,"지체, 시각, 청각/언어, 지적/자폐, 뇌병변, 기타",[12월] 디딤특수체육,16:00 ~ 16:50,수,서경산,2020.12.01 ~ 2020.12.10,미지원,"장애인 화장실,장애인용 엘리베이터,장애인전용 주차구역,주출입구 단차없음,휠체어 대여,시각장애인 편의서비스","20,000",127.472249146021,36.2681154529683,정좌표
323,동구아름다운복지관,최재천,042-280-9519,대전광역시 동구 안골로 49 동구아름다운복지관(구도동),2명,2765 ㎡,기타종목,"지체, 청각/언어, 지적/자폐, 뇌병변, 기타",[12월] 멀티스포츠,17:00 ~ 17:50,목,서경산,2020.12.01 ~ 2020.12.10,미지원,"장애인 화장실,장애인용 엘리베이터,장애인전용 주차구역,주출입구 단차없음,휠체어 대여,시각장애인 편의서비스","20,000",127.472249146021,36.2681154529683,정좌표
324,동구아름다운복지관,최재천,042-280-9519,대전광역시 동구 안골로 49 동구아름다운복지관(구도동),2명,2765 ㎡,기타종목,"지체, 청각/언어, 지적/자폐, 뇌병변, 기타",[12월] 성인풋살,15:00 ~ 16:00,목,서경산,2020.12.01 ~ 2020.12.10,미지원,"장애인 화장실,장애인용 엘리베이터,장애인전용 주차구역,주출입구 단차없음,휠체어 대여,시각장애인 편의서비스","20,000",127.472249146021,36.2681154529683,정좌표
325,동구아름다운복지관,최재천,042-280-9519,대전광역시 동구 안골로 49 동구아름다운복지관(구도동),2명,2765 ㎡,기타종목,"지체, 청각/언어, 지적/자폐, 뇌병변, 기타",[12월] 스포츠스태킹,16:00 ~ 16:50,금,서경산,2020.12.01 ~ 2020.12.10,미지원,"장애인 화장실,장애인용 엘리베이터,장애인전용 주차구역,주출입구 단차없음,휠체어 대여,시각장애인 편의서비스","20,000",127.472249146021,36.2681154529683,정좌표
326,동구아름다운복지관,최재천,042-280-9519,대전광역시 동구 안골로 49 동구아름다운복지관(구도동),2명,2765 ㎡,기타종목,"지체, 시각, 청각/언어, 지적/자폐, 뇌병변, 기타",[12월] 아동특수체육,14:30 ~ 15:20,수,서경산,2020.12.01 ~ 2020.12.10,미지원,"장애인 화장실,장애인용 엘리베이터,장애인전용 주차구역,주출입구 단차없음,휠체어 대여,시각장애인 편의서비스","20,000",127.472249146021,36.2681154529683,정좌표
327,동구아름다운복지관,최재천,042-280-9519,대전광역시 동구 안골로 49 동구아름다운복지관(구도동),2명,2765 ㎡,기타종목,"지체, 시각, 청각/언어, 지적/자폐, 뇌병변, 기타",[12월] 어울림특수체육,17:00 ~ 17:50,수,서경산,2020.12.01 ~ 2020.12.10,미지원,"장애인 화장실,장애인용 엘리베이터,장애인전용 주차구역,주출입구 단차없음,휠체어 대여,시각장애인 편의서비스","20,000",127.472249146021,36.2681154529683,정좌표
328,동구아름다운복지관,최재천,042-280-9519,대전광역시 동구 안골로 49 동구아름다운복지관(구도동),2명,2765 ㎡,기타종목,"지체, 청각/언어, 지적/자폐, 뇌병변, 기타",[12월] 플라잉디스크B,10:00 ~ 10:50,금,서경산,2020.12.01 ~ 2020.12.10,미지원,"장애인 화장실,장애인용 엘리베이터,장애인전용 주차구역,주출입구 단차없음,휠체어 대여,시각장애인 편의서비스","20,000",127.472249146021,36.2681154529683,정좌표
329,동구아름다운복지관,최재천,042-280-9519,대전광역시 동구 안골로 49 동구아름다운복지관(구도동),2명,2765 ㎡,기타종목,"지체, 청각/언어, 지적/자폐, 뇌병변, 기타",[12월] 플라잉디스크B,16:10 ~ 17:00,화,서경산,2020.12.01 ~ 2020.12.10,미지원,"장애인 화장실,장애인용 엘리베이터,장애인전용 주차구역,주출입구 단차없음,휠체어 대여,시각장애인 편의서비스","20,000",127.472249146021,36.2681154529683,정좌표
330,동래스포츠클럽,장준용,051-503-7612,부산광역시 동래구 미남로 110 (온천동),5명,1821 ㎡,수영,시각,[12월] 08시오전수영(장애인보호자 동반),08:00 ~ 08:50,"월,화,수,목,금",이동민,2020.12.01 ~ 2020.12.10,미지원,"장애인 화장실,장애인용 엘리베이터,장애인전용 주차구역,휠체어 대여","68,000",129.069837884057,35.2035989802738,정좌표
331,동래스포츠클럽,장준용,051-503-7612,부산광역시 동래구 미남로 110 (온천동),5명,1821 ㎡,기타종목,"지체, 시각, 청각/언어, 지적/자폐",[12월] 스피닝_화목,00:00 ~ 00:00,"화,목",,2020.12.01 ~ 2020.12.10,미지원,"장애인 화장실,장애인용 엘리베이터,장애인전용 주차구역,휠체어 대여","68,000",129.069837884057,35.2035989802738,정좌표
332,동래스포츠클럽,장준용,051-503-7612,부산광역시 동래구 미남로 110 (온천동),5명,1821 ㎡,수영,"지체, 시각, 청각/언어, 지적/자폐",[12월] 청소년수영,21:00 ~ 21:50,"월,화,수,목,금",,2020.12.01 ~ 2020.12.10,미지원,"장애인 화장실,장애인용 엘리베이터,장애인전용 주차구역,휠체어 대여","68,000",129.069837884057,35.2035989802738,정좌표
333,동림다목적체육관,이순옥,062-714-2002,광주광역시 북구 북문대로 200 동림다목적체육관 1층(동림동),1명,7124 ㎡,탁구,"지체, 지적/자폐, 뇌병변, 기타",[12월] 장애인탁구교실,13:00 ~ 15:00,"월,수",정은종,2020.12.01 ~ 2020.12.10,미지원,"장애인 화장실,장애인용 엘리베이터,장애인전용 주차구역","80,000",126.87096108936,35.1866788275951,정좌표
334,동림다목적체육관,이순옥,062-714-2002,광주광역시 북구 북문대로 200 동림다목적체육관 1층(동림동),1명,7124 ㎡,탁구,"지체, 지적/자폐, 뇌병변, 기타",[12월] 장애인탁구교실,13:00 ~ 15:00,"화,목",정은종,2020.12.01 ~ 2020.12.10,미지원,"장애인 화장실,장애인용 엘리베이터,장애인전용 주차구역","80,000",126.87096108936,35.1866788275951,정좌표
335,동산볼링장,이상원,053-256-3030,"대구광역시 중구 달성로 10 (동산동, 동산빌딩) 지하1층",3명,1160 ㎡,볼링,"지체, 시각, 청각/언어, 지적/자폐, 뇌병변, 기타",[12월] 장애인볼링,11:00 ~ 17:00,"월,화,수,목,금",이상원,2020.12.01 ~ 2020.12.10,미지원,"장애인용 엘리베이터,장애인전용 주차구역,시각장애인 편의서비스","80,000",128.582775842617,35.8659413324471,정좌표
336,동아대 태권도,강경태,02-335-9978,부산광역시 북구 학사로17번가길 30 삼일빌등 2층 동아대태권도(화명동),3명,182 ㎡,태권도,"지체, 시각, 청각/언어, 지적/자폐, 뇌병변, 기타",[12월] 태권도,14:00 ~ 21:30,"월,화,수,목,금",강경태,2020.12.01 ~ 2020.12.10,지원,장애인용 엘리베이터,"130,000",129.008509345219,35.2233440208495,정좌표
337,동아대mba태권도,정민중,051-851-7300,"부산광역시 연제구 연수로 130 상가B동 206,207(연산동, 연산더샵)",2명,153 ㎡,태권도,기타,[12월] 태권도,19:00 ~ 20:00,"월,화,수,목,금",정민중,2020.12.01 ~ 2020.12.10,지원,"장애인 화장실,장애인용 엘리베이터,장애인전용 주차구역,주출입구 단차없음","80,000",129.084106614441,35.1733875954669,정좌표
338,동아대mba태권도,정민중,051-851-7300,"부산광역시 연제구 연수로 130 상가B동 206,207(연산동, 연산더샵)",2명,153 ㎡,태권도,기타,[12월] 태권도,20:30 ~ 21:30,"월,화,수,목,금,토",정민중,2020.12.01 ~ 2020.12.10,지원,"장애인 화장실,장애인용 엘리베이터,장애인전용 주차구역,주출입구 단차없음","80,000",129.084106614441,35.1733875954669,정좌표
339,동아대mba태권도,정민중,051-851-7300,"부산광역시 연제구 연수로 130 상가B동 206,207(연산동, 연산더샵)",2명,153 ㎡,태권도,기타,[12월] 태권도,20:30 ~ 21:30,"월,화,수,목,금",정민중,2020.12.01 ~ 2020.12.10,지원,"장애인 화장실,장애인용 엘리베이터,장애인전용 주차구역,주출입구 단차없음","80,000",129.084106614441,35.1733875954669,정좌표
340,동아대힘찬태권도,박경민,052-233-3388,울산광역시 동구 월봉4길 58 2층(방어동),3명,55 ㎡,태권도,"지체, 시각, 청각/언어, 지적/자폐, 뇌병변, 기타",[12월] 태권도,02:00 ~ 22:00,"월,화,수,목,금",박경민,2020.12.01 ~ 2020.12.10,지원,,"120,000",129.420038257423,35.4896001344472,정좌표
341,동아스포츠아카데미,황현성,010-3540-4491,부산광역시 북구 금곡대로550번길 30 3층 동아스포츠아카데미(금곡동),1명,330 ㎡,농구,"지체, 청각/언어, 지적/자폐, 뇌병변, 기타",[12월] 농구,17:00 ~ 18:00,"월,화,수,목,금,토,일",안홍근,2020.12.01 ~ 2020.12.10,지원,장애인전용 주차구역,"80,000",129.013482060987,35.2562941121016,정좌표
342,동아스포츠아카데미,황현성,010-3540-4491,부산광역시 북구 금곡대로550번길 30 3층 동아스포츠아카데미(금곡동),1명,330 ㎡,롤러인라인,"지체, 청각/언어, 지적/자폐, 뇌병변",[12월] 인라인스케이트,18:00 ~ 19:00,"월,화,수,목,금,토,일",황현성,2020.12.01 ~ 2020.12.10,지원,장애인전용 주차구역,"80,000",129.013482060987,35.2562941121016,정좌표
343,동양태권도장,김희근,02-722-2409,제주시 지석10길 13-15 동양태권도장,2명,165 ㎡,태권도,"청각/언어, 지적/자폐, 뇌병변",[12월] 동양태권도 교실,14:00 ~ 21:00,"월,화,수,목,금,토,일",김희근,2020.12.01 ~ 2020.12.10,지원,,"80,000",126.584513531566,33.52010656818,정좌표
344,동천재활체육센터,이정훈,02-949-9114,서울특별시 노원구 노원로18길 41 동천재활체육센터(하계동),10명,9480 ㎡,헬스,"지체, 시각, 청각/언어, 지적/자폐, 뇌병변, 기타",[12월] 퍼블릭 1개월 +헬스 PT(4회 20분/회),06:00 ~ 22:30,"월,화,수,목,금",이성모,2020.12.01 ~ 2020.12.10,미지원,"장애인 화장실,장애인용 엘리베이터,장애인전용 주차구역,주출입구 단차없음,휠체어 대여,시각장애인 편의서비스","80,000",127.07375362205,37.6441335150962,정좌표
345,동천재활체육센터,이정훈,02-949-9114,서울특별시 노원구 노원로18길 41 동천재활체육센터(하계동),10명,9480 ㎡,빙상,"지체, 청각/언어, 지적/자폐",[12월] 해누리빙상,15:00 ~ 17:45,"월,화,수,목,금",이성모,2020.12.01 ~ 2020.12.10,미지원,"장애인 화장실,장애인용 엘리베이터,장애인전용 주차구역,주출입구 단차없음,휠체어 대여,시각장애인 편의서비스","80,000",127.07375362205,37.6441335150962,정좌표
346,동천재활체육센터,이정훈,02-949-9114,서울특별시 노원구 노원로18길 41 동천재활체육센터(하계동),10명,9480 ㎡,헬스,"지체, 시각, 청각/언어, 지적/자폐, 뇌병변, 기타",[12월] 해누리헬스,06:00 ~ 22:00,"월,화,수,목,금,토,일",이성모,2020.12.01 ~ 2020.12.10,미지원,"장애인 화장실,장애인용 엘리베이터,장애인전용 주차구역,주출입구 단차없음,휠체어 대여,시각장애인 편의서비스","80,000",127.07375362205,37.6441335150962,정좌표
347,두드림스포츠발달센터,이동훈,053-982-0675,대구광역시 동구 동촌로 265-1 3층(방촌동),2명,208 ㎡,기타종목,"지체, 지적/자폐, 기타",[12월] 심리운동,10:00 ~ 19:00,"월,화,목,금","김성운,,전슬기",2020.12.01 ~ 2020.12.10,미지원,"장애인 화장실,장애인용 엘리베이터,주출입구 단차없음","80,000",128.669044753791,35.8802326224993,정좌표
348,두미르태권도장,정구현,033-252-1357,강원도 춘천시 영서로 2756번길 8-1 1층,2명,126 ㎡,태권도,"지체, 시각, 청각/언어, 지적/자폐",[12월] 태권도,14:00 ~ 19:00,"월,화,수,목,금",정구현,2020.12.01 ~ 2020.12.10,지원,,"80,000",127.72918060829,37.899086161842,정좌표
349,드림키즈아동발달센터,김화년,041-564-5667,충청남도 천안시 서북구 불당33길 22 불당고은타워 802호 드림키즈아동발달센터(불당동),1명,165 ㎡,농구,"지체, 시각, 청각/언어, 지적/자폐, 뇌병변, 기타",[12월] 드림키즈 농구교실,14:00 ~ 16:00,"월,토",김화년,2020.12.01 ~ 2020.12.10,지원,"장애인 화장실,장애인용 엘리베이터,장애인전용 주차구역,시각장애인 편의서비스","160,000",127.108122184545,36.8119562426097,정좌표
350,드림키즈아동발달센터,김화년,041-564-5667,충청남도 천안시 서북구 불당33길 22 불당고은타워 802호 드림키즈아동발달센터(불당동),1명,165 ㎡,기타종목,"지체, 시각, 청각/언어, 지적/자폐, 뇌병변, 기타",[12월] 특수체육,10:00 ~ 20:00,"월,화,수,목,금",김화년,2020.12.01 ~ 2020.12.10,지원,"장애인 화장실,장애인용 엘리베이터,장애인전용 주차구역,시각장애인 편의서비스","160,000",127.108122184545,36.8119562426097,정좌표
351,라스트짐,변성준,062-351-0517,광주광역시 남구 화정로260번길 34 4층 라스트짐(월산동),2명,264 ㎡,기타종목,"청각/언어, 기타",[12월] 주짓수,19:00 ~ 23:00,"월,화,수,목,금",조효정,2020.12.01 ~ 2020.12.10,지원,,"80,000",126.886963249348,35.1451733106335,정좌표
352,라온치료교육센터,이인희,02-401-8005,경기도 안산시 단원구 원포공원1로 59 A동 310호,1명,314 ㎡,기타종목,지적/자폐,[12월] 뉴스포츠,13:00 ~ 19:00,"월,화,수,목,금",이주영,2020.12.01 ~ 2020.12.10,미지원,"장애인용 엘리베이터,장애인전용 주차구역,주출입구 단차없음","80,000",126.811203237528,37.3024930835787,정좌표
353,라온치료교육센터,이인희,02-401-8005,경기도 안산시 단원구 원포공원1로 59 A동 310호,1명,314 ㎡,기타종목,"지적/자폐, 뇌병변",[12월] 체력운동,10:00 ~ 19:00,"월,화,수,목,금",이주영,2020.12.01 ~ 2020.12.10,미지원,"장애인용 엘리베이터,장애인전용 주차구역,주출입구 단차없음","80,000",126.811203237528,37.3024930835787,정좌표
354,라온치료교육센터,이인희,02-401-8005,경기도 안산시 단원구 원포공원1로 59 A동 310호,1명,314 ㎡,기타종목,"지적/자폐, 뇌병변",[12월] 특수체육,10:00 ~ 19:00,"월,화,수,목,금",이주영,2020.12.01 ~ 2020.12.10,미지원,"장애인용 엘리베이터,장애인전용 주차구역,주출입구 단차없음","80,000",126.811203237528,37.3024930835787,정좌표
355,라온태권도,황미화,051-960-9411,부산광역시 수영구 과정로41번길 65 (망미동),1명,89 ㎡,태권도,"지체, 시각, 청각/언어, 기타","[12월] 태권도, 스트레칭, 체력단련, 면연력증진",06:00 ~ 23:00,"월,화,수,목,금",황미화,2020.12.01 ~ 2020.12.10,지원,,"80,000",129.103813661366,35.1751285876356,정좌표
356,라이온합기도,이홍욱,032-512-0308,인천광역시 부평구 부흥로243번길 10 2층 합기도 체육관(부평동),1명,132 ㎡,합기도,지적/자폐,[12월] 합기도및학교체육,01:00 ~ 10:00,"월,화,수,목,금",이홍욱,2020.12.01 ~ 2020.12.10,지원,,"80,000",126.719087198636,37.4993200422486,정좌표
357,람보헬스,박길선,043-846-2445,충청북도 충주시 천변로 261 4층,1명,389 ㎡,기타종목,"지체, 시각, 청각/언어, 지적/자폐, 뇌병변, 기타",[12월] 헬스,10:00 ~ 12:00,"월,화,수,목,금",,2020.12.01 ~ 2020.12.10,미지원,"장애인 화장실,장애인용 엘리베이터,장애인전용 주차구역,주출입구 단차없음","80,000",127.936146487581,36.9728442703917,정좌표
358,레전드복싱체육관,김영조,02-2244-0012,서울특별시 동대문구 장한로26길 24 2층(장안동),1명,128 ㎡,복싱,"청각/언어, 지적/자폐",[12월] 복싱기초체력,13:00 ~ 18:00,"월,수,금","정호진,,김영조",2020.12.01 ~ 2020.12.10,미지원,,"80,000",127.072949970389,37.5714812234659,정좌표
359,롯데태권도,김강한,02-535-6333,"대전광역시 서구 신갈마로 46 (내동, 롯데아파트) 롯데아파트상가 306호",2명,100 ㎡,태권도,지적/자폐,[12월] 태권도,14:00 ~ 22:00,"월,화,수,목,금",김강한,2020.12.01 ~ 2020.12.10,지원,"장애인 화장실,장애인용 엘리베이터,장애인전용 주차구역,주출입구 단차없음","120,000",127.368186791474,36.3379193430507,정좌표
360,리더스복싱다이어트,강준원,010-4186-3326,대구광역시 달성군 화원읍 성화로4길 11 리더스복싱다이어트,1명,109090909 ㎡,복싱,"지체, 시각, 청각/언어, 지적/자폐, 뇌병변",[12월] 리더스복싱다이어트클럽,11:00 ~ 10:00,"월,화,수,목,금","정준호,,강준원",2020.12.01 ~ 2020.12.10,미지원,,"80,000",128.491069584581,35.80170103486,정좌표
361,리더스클럽 합기도 바른교육관,서승태,02-576-3040,광주광역시 북구 양일로 73 2층201호(양산동),3명,160 ㎡,합기도,"지체, 시각, 청각/언어",[12월] 합기도,15:00 ~ 22:00,"월,화,수,목,금,토",서승태,2020.12.01 ~ 2020.12.10,지원,,"80,000",126.872882101145,35.1979881381324,정좌표
362,리복싱 스포츠센터,김기현,051-724-1279,"부산광역시 기장군 기장읍 차성로 332 (동부리, 애견사랑) 3층",2명,207 ㎡,기타종목,"시각, 청각/언어, 지적/자폐, 뇌병변, 기타",[12월] 재활복싱다이어트,17:00 ~ 17:50,화,류은경,2020.12.01 ~ 2020.12.10,미지원,,"80,000",129.213981558988,35.2470843884573,정좌표
363,리오실내골프연습장,조태진,055-232-6631,경상남도 창원시 마산회원구 내서읍 경남대로 913 리오빌딩6층,1명,74 ㎡,골프,"시각, 청각/언어",[12월] 골프기초레슨,13:00 ~ 20:00,"월,화,수,목,금",조태진,2020.12.01 ~ 2020.12.10,미지원,"장애인전용 주차구역,주출입구 단차없음","80,000",128.504702080734,35.2317033735686,정좌표
364,리틀자이언트,이하림외1,033-746-1105,강원도 원주시 행구로 397-4 가동,5명,990 ㎡,기타종목,"지체, 기타",[12월] 뉴스포츠,16:00 ~ 16:40,목,김성원,2020.12.01 ~ 2020.12.10,미지원,주출입구 단차없음,"70,000",128.000758168923,37.3437784914478,정좌표
365,리틀짐스쿨 태권&댄스,이병준,02-552-5553,경상남도 창원시 진해구 동진로157번길 8 1층,2명,160 ㎡,태권도,"지체, 청각/언어, 기타",[12월] 태권도,14:00 ~ 18:00,"수,금",이병준,2020.12.01 ~ 2020.12.10,지원,,"80,000",128.704050114268,35.1429575234326,정좌표
366,마음가gym합기도,이겸,02-964-0269,대구광역시 동구 안심로22길 14(율하동) 효원빌딩 203호,1명,212 ㎡,합기도,"지체, 청각/언어",[12월] 합기도호신술,13:00 ~ 23:00,"월,화,수,목,금",이겸,2020.12.01 ~ 2020.12.10,지원,"장애인 화장실,장애인전용 주차구역","80,000",128.696123417158,35.8661475600099,정좌표
367,마음뜰 clinic 아동청소년 발달센터,정재훈,031-5183-3883,경기도 화성시 봉담읍 동화길 51 프리미엄 원희캐슬 3층 324호,2명,113 ㎡,기타종목,"지체, 시각, 청각/언어, 지적/자폐, 뇌병변, 기타",[12월] 특수체육,10:00 ~ 20:00,"월,화,수,목,금,토,일","최재의,,강학성",2020.12.01 ~ 2020.12.10,미지원,"장애인 화장실,장애인용 엘리베이터,장애인전용 주차구역,주출입구 단차없음","80,000",126.955490505189,37.2190312551577,정좌표
368,마음뜰clinic 운동발달센터,김상일,070-8833-2963,경기도 수원시 장안구 대평로 128 파크프라자 4층 404호(정자동),2명,135 ㎡,기타종목,"지체, 시각, 청각/언어, 지적/자폐, 뇌병변, 기타","[12월] 특수체육,레포츠활동",11:00 ~ 19:00,"월,화,수,목,금,토",김상일,2020.12.01 ~ 2020.12.10,미지원,"장애인 화장실,장애인용 엘리베이터,장애인전용 주차구역,주출입구 단차없음","80,000",126.991316677867,37.2989323506411,정좌표
369,마인드언어심리상담센터,조여진,02-469-0610,인천광역시 남동구 백범로 254 3층 마인드언어심리상담센터(간석동),1명,48 ㎡,기타종목,"청각/언어, 지적/자폐, 뇌병변, 기타",[12월] 심리운동,09:10 ~ 19:50,"월,수,목,금",박석원,2020.12.01 ~ 2020.12.10,미지원,"장애인 화장실,장애인용 엘리베이터,장애인전용 주차구역,주출입구 단차없음,시각장애인 편의서비스,청각장애인 편의서비스","180,000",126.721305774098,37.4609901772215,정좌표
370,마인드언어심리상담센터,조여진,02-469-0610,인천광역시 남동구 백범로 254 3층 마인드언어심리상담센터(간석동),1명,48 ㎡,축구,"청각/언어, 지적/자폐, 뇌병변, 기타",[12월] 장애인축구,09:10 ~ 19:50,"월,수,목,금",박석원,2020.12.01 ~ 2020.12.10,미지원,"장애인 화장실,장애인용 엘리베이터,장애인전용 주차구역,주출입구 단차없음,시각장애인 편의서비스,청각장애인 편의서비스","180,000",126.721305774098,37.4609901772215,정좌표
371,마인드언어심리상담센터,조여진,02-469-0610,인천광역시 남동구 백범로 254 3층 마인드언어심리상담센터(간석동),1명,48 ㎡,기타종목,"청각/언어, 지적/자폐, 뇌병변, 기타",[12월] 특수체육,09:10 ~ 19:50,"월,수,목,금",박석원,2020.12.01 ~ 2020.12.10,미지원,"장애인 화장실,장애인용 엘리베이터,장애인전용 주차구역,주출입구 단차없음,시각장애인 편의서비스,청각장애인 편의서비스","180,000",126.721305774098,37.4609901772215,정좌표
372,마크짐 망원점,이상민,02-332-3630,서울특별시 마포구 월드컵로 155 6층(망원동),6명,450 ㎡,헬스,"지체, 청각/언어",[12월] 1개월 이용권,06:00 ~ 23:30,"월,화,수,목,금,토,일",마크짐,2020.12.01 ~ 2020.12.10,미지원,,"88,000",126.904931460827,37.5613809605763,정좌표
373,마포구청 당구아카데미,유동균,02-3153-9875,서울특별시 마포구 월드컵로 212 11층 생활체육과(성산동),2명,231 ㎡,기타종목,"지체, 청각/언어, 지적/자폐",[12월] 장애인당구교실,13:00 ~ 15:00,"화,수,목",전상진,2020.12.01 ~ 2020.12.10,미지원,"장애인 화장실,장애인용 엘리베이터,장애인전용 주차구역","20,000",126.901820874966,37.5669186026682,정좌표
374,마포장애인종합복지관,이명자,02-306-6212,서울특별시 마포구 성산로 128 마포장애인종합복지관(성산동),3명,2122 ㎡,기타종목,지적/자폐,[12월] ,14:00 ~ 15:00,"화,금",천상민,2020.12.01 ~ 2020.12.10,미지원,"장애인 화장실,장애인용 엘리베이터,장애인전용 주차구역,주출입구 단차없음,휠체어 대여,시각장애인 편의서비스,청각장애인 편의서비스","80,000",126.908854815865,37.5637892336494,정좌표
375,마포푸르메스포츠센터,조영수,02-6070-9270,서울특별시 마포구 월드컵북로 494 지하1층 마포푸르메스포츠센터(상암동),9명,2243 ㎡,수영,지적/자폐,[12월] 발달장애성인청소년수영A,17:00 ~ 17:50,"화,목",임기식,2020.12.01 ~ 2020.12.10,미지원,"장애인 화장실,장애인용 엘리베이터,장애인전용 주차구역,주출입구 단차없음,휠체어 대여","80,000",126.880520429064,37.5846474723023,정좌표
376,맑은샘헬스클럽,김정욱,051-338-8801,부산광역시 북구 시랑로79번길 17 1222-24(구포동),1명,750 ㎡,헬스,"청각/언어, 기타",[12월] 스트레칭,18:20 ~ 18:50,"월,화,수,목,금",박성민,2020.12.01 ~ 2020.12.10,미지원,주출입구 단차없음,"100,000",129.007188707512,35.1990812722925,정좌표
377,맘스마인드발달교육연구소,신숙연,042-826-4668,"대전광역시 유성구 학하중앙로128번길 22-10 2,3층(학하동)",4명,592 ㎡,기타종목,"지체, 시각, 청각/언어, 지적/자폐, 뇌병변, 기타",[12월] 특수체육,10:00 ~ 19:50,"월,화,수,목,금,토","김홍덕,,임대웅,,박혜성",2020.12.01 ~ 2020.12.10,미지원,"장애인 화장실,장애인용 엘리베이터,주출입구 단차없음,시각장애인 편의서비스,청각장애인 편의서비스","80,000",127.305367559201,36.3404513560932,정좌표
378,매직짐,강덕일,02-379-8815,서울특별시 서대문구 통일로 484 유진상가2층 매직짐(홍제동),3명,661 ㎡,헬스,"지체, 청각/언어",[12월] 헬스,06:00 ~ 00:00,"월,화,수,목,금",유호종,2020.12.01 ~ 2020.12.10,미지원,,"80,000",126.942942085269,37.5916071382784,정좌표
379,메인체육센터,김준형,02-342-1282,경기도 의왕시 경수대로 257  7층 705호,4명,132 ㎡,기타종목,"지체, 시각, 청각/언어, 지적/자폐, 뇌병변, 기타",[12월] 뉴스포츠,10:00 ~ 20:00,"월,화,수,목,금,토","민선희,,신성연",2020.12.01 ~ 2020.12.10,미지원,"장애인 화장실,장애인용 엘리베이터,장애인전용 주차구역","80,000",126.972640278306,37.3491917840673,정좌표
380,메인체육센터,김준형,02-342-1282,경기도 의왕시 경수대로 257  7층 705호,4명,132 ㎡,기타종목,"지체, 시각, 청각/언어, 지적/자폐, 뇌병변, 기타",[12월] 특수체육,09:00 ~ 21:00,"월,화,수,목,금,토","김준형,,민선희,,신성연",2020.12.01 ~ 2020.12.10,미지원,"장애인 화장실,장애인용 엘리베이터,장애인전용 주차구역","80,000",126.972640278306,37.3491917840673,정좌표
381,멘토태권키즈짐,정지명,02-427-8585,서울특별시 강동구 상일로12길 99 리엔프라자 303(강일동),2명,39 ㎡,태권도,시각,[12월] 태권도,14:00 ~ 22:00,"월,화,수,목,금",정지명,2020.12.01 ~ 2020.12.10,지원,장애인전용 주차구역,"140,000",127.172923349096,37.5568492560495,정좌표
382,명선태권도,김당호,062-361-5424,광주광역시 서구 군분2로 31 건물2층(화정동),1명,124 ㎡,태권도,"지체, 시각, 청각/언어, 지적/자폐, 뇌병변, 기타",[12월] 태권도,02:00 ~ 21:00,"월,화,수,목,금",김당호,2020.12.01 ~ 2020.12.10,지원,,"110,000",126.880788744498,35.1557853567859,정좌표
383,명성체육관,배종필,051-333-7967,부산광역시 북구 모분재로 15 2층(구포동),1명,99 ㎡,태권도,"지체, 지적/자폐, 기타","[12월] 태권도(건강다이어트,기초체력운동)",01:30 ~ 02:30,"화,수,목",배종필,2020.12.01 ~ 2020.12.10,지원,,"100,000",129.006380431891,35.2059469832087,정좌표
384,모던볼링클리닉센터,장해수,053-522-5808,"대구광역시 달서구 달구벌대로 1545 (죽전동, 골든뷰메디타워) 골든뷰12층",2명,794 ㎡,볼링,"지체, 시각, 청각/언어, 지적/자폐, 뇌병변, 기타",[12월] 볼링,11:00 ~ 18:00,"월,화,수,목,금",장해수,2020.12.01 ~ 2020.12.10,미지원,"장애인 화장실,장애인용 엘리베이터,장애인전용 주차구역,주출입구 단차없음,시각장애인 편의서비스,청각장애인 편의서비스","80,000",128.536089754532,35.8503727557715,정좌표
385,모라검도관(대한검도회),안병기,02-305-6070,부산시 사상구 모라동 1367번지 3층/4층 모라검도관,1명,112 ㎡,검도,"지체, 시각, 청각/언어, 지적/자폐",[12월] 검도수련,10:00 ~ 11:00,토,안병기,2020.12.01 ~ 2020.12.10,미지원,,"80,000",128.990542968594,35.1871726963518,정좌표
386,목포시장애인태권도협회,이상현,061-242-6868,전라남도 목포시 호남로24번길 6 1층(남교동),2명,198347107 ㎡,태권도,"청각/언어, 지적/자폐, 기타",[12월] 태권도.재활요가,18:00 ~ 20:00,"월,화,수,목,금","이상현,,최향록",2020.12.01 ~ 2020.12.10,지원,"장애인 화장실,장애인전용 주차구역,주출입구 단차없음","80,000",126.381041848077,34.7947034595375,정좌표
387,무덕관,김태수,010-8562-1777,광주광역시 광산구 손재로110번길 32 401호(산정동),2명,198 ㎡,합기도,"지체, 시각, 청각/언어, 지적/자폐, 뇌병변, 기타",[12월] 합기도건강교실,11:00 ~ 14:00,"월,화,수,목,금",김태수,2020.12.01 ~ 2020.12.10,지원,장애인용 엘리베이터,"120,000",126.798806248424,35.1758533865329,정좌표
388,무덕관,김태수,010-8562-1777,광주광역시 광산구 손재로110번길 32 401호(산정동),2명,198 ㎡,합기도,"지체, 시각, 청각/언어, 지적/자폐, 뇌병변, 기타",[12월] 합기도건강운동,11:00 ~ 14:00,"월,화,수,목,금",김태수,2020.12.01 ~ 2020.12.10,지원,장애인용 엘리베이터,"120,000",126.798806248424,35.1758533865329,정좌표
389,무덕체육관,권 기훈,054-673-2991,봉화군 봉화읍 교촌길 56 3층,1명,94 ㎡,태권도,"지체, 청각/언어, 지적/자폐, 기타",[12월] 태권도,14:30 ~ 21:00,"월,화,수,목,금","권,기훈",2020.12.01 ~ 2020.12.10,지원,,"120,000",128.737494976939,36.8874022679332,정좌표
390,문경시장애인종합복지관,박종훈,054-556-0042,문경시 시청2길 34 ,명, ㎡,기타종목,"지체, 시각, 청각/언어, 지적/자폐, 뇌병변, 기타",[12월] 슐런,16:00 ~ 17:00,금,"김태정,,이선애",2020.12.01 ~ 2020.12.10,지원,,"80,000",128.187015702087,36.587355941877,정좌표
391,문경휘트니스,김용태,041-734-8801,충청남도 논산시 중앙로410번길 6 2층 문경휘트니스(취암동),3명,825 ㎡,헬스,청각/언어,[12월] 헬스,06:00 ~ 23:00,"월,화,수,목,금","정진형,,윤영옥",2020.12.01 ~ 2020.12.10,미지원,"장애인용 엘리베이터,장애인전용 주차구역,주출입구 단차없음,시각장애인 편의서비스,청각장애인 편의서비스","70,000",127.089023564859,36.2006357058989,정좌표
392,문덕탁구클럽,김연희,054-292-5630,경상북도 포항시 남구 오천읍 냉천로 350 2층,2명,214 ㎡,탁구,"지체, 청각/언어, 지적/자폐, 뇌병변, 기타",[12월] 탁구레슨,13:00 ~ 22:00,"월,화,수,목,금",정은미,2020.12.01 ~ 2020.12.10,미지원,,"80,000",129.407887371608,35.9637333967597,정좌표
393,문화*운동통합센터 같이&가치,임성득,054-612-0271,경상북도 포항시 남구 대이로 91 401호(대잠동),2명,210 ㎡,기타종목,지적/자폐,[12월] 기초체력운동,15:00 ~ 15:45,"월,화,수,목,금",임성득,2020.12.01 ~ 2020.12.10,미지원,,"80,000",129.340539410857,36.0233009654493,정좌표
394,문화*운동통합센터 같이&가치,임성득,054-612-0271,경상북도 포항시 남구 대이로 91 401호(대잠동),2명,210 ㎡,기타종목,지적/자폐,[12월] 상호작용운동,16:00 ~ 16:45,"월,화,수,목,금,토",임성득,2020.12.01 ~ 2020.12.10,미지원,,"80,000",129.340539410857,36.0233009654493,정좌표
395,문화*운동통합센터 같이&가치,임성득,054-612-0271,경상북도 포항시 남구 대이로 91 401호(대잠동),2명,210 ㎡,기타종목,"지적/자폐, 기타",[12월] 지시이행능력,14:00 ~ 14:45,"월,화,수,목,금",임성득,2020.12.01 ~ 2020.12.10,미지원,,"80,000",129.340539410857,36.0233009654493,정좌표
396,문화*운동통합센터 같이&가치,임성득,054-612-0271,경상북도 포항시 남구 대이로 91 401호(대잠동),2명,210 ㎡,기타종목,지적/자폐,[12월] 체력단련,17:00 ~ 17:45,"월,화,수,목,금",임성득,2020.12.01 ~ 2020.12.10,미지원,,"80,000",129.340539410857,36.0233009654493,정좌표
397,미래태권도체육관,권철호,054-841-8628,경상북도 안동시 광명로 161 미래태권도(옥동),1명,50 ㎡,태권도,지적/자폐,[12월] 태권도,00:00 ~ 00:00,"월,화,수,목,금",권철호,2020.12.01 ~ 2020.12.10,지원,,"80,000",128.700886705572,36.5623455234577,정좌표
398,미래태권도체육관,권철호,054-841-8628,경상북도 안동시 광명로 161 미래태권도(옥동),1명,50 ㎡,태권도,지적/자폐,[12월] 태권도,00:00 ~ 00:00,"월,화,수,목,금",권철호,2020.12.01 ~ 2020.12.10,지원,,"80,000",128.700886705572,36.5623455234577,정좌표
399,미르 태권도&주짓수,최종엽,031-221-2133,"경기도 화성시 떡전골로 60 107동 118호(병점동, 병점역효성해링턴플레이스)",2명,100 ㎡,태권도,청각/언어,[12월] 태권도&주짓수,20:00 ~ 21:00,"월,화,수,목,금",최종엽,2020.12.01 ~ 2020.12.10,미지원,"장애인 화장실,장애인전용 주차구역,주출입구 단차없음","130,000",127.036355786385,37.2047175184323,정좌표
400,미요가필라테스,김리나,02-868-9207,세종특별자치시 새롬중앙로 62-15 317호(새롬동),4명,160 ㎡,요가,기타,[12월] 골반다이어트,18:40 ~ 19:40,"월,금",김리나,2020.12.01 ~ 2020.12.10,미지원,"장애인용 엘리베이터,장애인전용 주차구역,시각장애인 편의서비스","80,000",127.251229894194,36.486926090319,정좌표
401,미요가필라테스,김리나,02-868-9207,세종특별자치시 새롬중앙로 62-15 317호(새롬동),4명,160 ㎡,필라테스,기타,[12월] 소도구필라테스,18:40 ~ 19:40,"월,화",유예진,2020.12.01 ~ 2020.12.10,미지원,"장애인용 엘리베이터,장애인전용 주차구역,시각장애인 편의서비스","80,000",127.251229894194,36.486926090319,정좌표
402,민락경기태권도장,김무승,031-852-2950,경기도 의정부시 오목로 74 상가 2층(민락동),2명,61 ㎡,태권도,"지체, 지적/자폐",[12월] 태권도,14:00 ~ 20:00,"월,화,수,목,금",김무승,2020.12.01 ~ 2020.12.10,지원,,"130,000",127.090753736947,37.7350580499259,정좌표
403,바디팩토리,윤여원,042-826-4447,대전광역시 유성구 지족로 282 6층(지족동),10명,284 ㎡,필라테스,기타,[12월] 매트/소도구필라테스,10:00 ~ 21:00,"월,화,수,목,금",김민숙,2020.12.01 ~ 2020.12.10,미지원,"장애인용 엘리베이터,장애인전용 주차구역","80,000",127.308121434091,36.3872513105698,정좌표
404,바디팩토리,윤여원,042-826-4447,대전광역시 유성구 지족로 282 6층(지족동),10명,284 ㎡,필라테스,기타,[12월] 새벽반 기구필라테스,06:30 ~ 07:20,"월,화,수,목,금,토",윤정인,2020.12.01 ~ 2020.12.10,미지원,"장애인용 엘리베이터,장애인전용 주차구역","80,000",127.308121434091,36.3872513105698,정좌표
405,바디팩토리,윤여원,042-826-4447,대전광역시 유성구 지족로 282 6층(지족동),10명,284 ㎡,필라테스,기타,[12월] 오전/저녁 기구필라테스,09:00 ~ 21:50,"월,화,수,목,금",김용란,2020.12.01 ~ 2020.12.10,미지원,"장애인용 엘리베이터,장애인전용 주차구역","80,000",127.308121434091,36.3872513105698,정좌표
406,바디팩토리,윤여원,042-826-4447,대전광역시 유성구 지족로 282 6층(지족동),10명,284 ㎡,댄스,기타,[12월] 줌바댄스,10:00 ~ 22:00,"월,화,수,목,금",김연주,2020.12.01 ~ 2020.12.10,미지원,"장애인용 엘리베이터,장애인전용 주차구역","80,000",127.308121434091,36.3872513105698,정좌표
407,바른학송합기도,류중신,062-972-0332,광주광역시 광산구 월계로 124 2층 바른학송합기도(월계동),1명,128 ㎡,합기도,"지적/자폐, 뇌병변, 기타",[12월] 합기도,16:00 ~ 21:50,"월,화,수,목,금",류중신,2020.12.01 ~ 2020.12.10,지원,장애인 화장실,"80,000",126.83900765064,35.2134287234387,정좌표
408,바른합기도키즈스쿨,장재석,043-214-4548,충청북도 청주시 청원구 율봉로 197 2층(율량동),2명,118 ㎡,합기도,기타,[12월] 바른합기도,20:00 ~ 21:00,"화,목",장재석,2020.12.01 ~ 2020.12.10,지원,,"150,000",127.490930686724,36.66882639249,정좌표
409,바른합기도키즈스쿨,장재석,043-214-4548,충청북도 청주시 청원구 율봉로 197 2층(율량동),2명,118 ㎡,합기도,"청각/언어, 기타",[12월] 바른합기도1강좌,20:00 ~ 21:00,"월,화,목",장재석,2020.12.01 ~ 2020.12.10,지원,,"150,000",127.490930686724,36.66882639249,정좌표
410,바름아동센터,오지웅,02-441-5095,경기도 안양시 만안구 수리산로 24 헤븐빌 201호,3명,136 ㎡,농구,지적/자폐,[12월] 농구,18:10 ~ 19:10,수,"송효준,,오지웅",2020.12.01 ~ 2020.12.10,미지원,"장애인용 엘리베이터,주출입구 단차없음","80,000",126.929153140173,37.3877163270127,정좌표
411,바름아동센터,오지웅,02-441-5095,경기도 안양시 만안구 수리산로 24 헤븐빌 201호,3명,136 ㎡,볼링,"지적/자폐, 뇌병변",[12월] 볼링,18:00 ~ 19:00,금,김민규,2020.12.01 ~ 2020.12.10,미지원,"장애인용 엘리베이터,주출입구 단차없음","80,000",126.929153140173,37.3877163270127,정좌표
412,바름아동센터,오지웅,02-441-5095,경기도 안양시 만안구 수리산로 24 헤븐빌 201호,3명,136 ㎡,기타종목,지적/자폐,[12월] 스케이트,13:30 ~ 14:30,"목,토","송효준,,김민규",2020.12.01 ~ 2020.12.10,미지원,"장애인용 엘리베이터,주출입구 단차없음","80,000",126.929153140173,37.3877163270127,정좌표
413,바름아동센터,오지웅,02-441-5095,경기도 안양시 만안구 수리산로 24 헤븐빌 201호,3명,136 ㎡,기타종목,"지적/자폐, 뇌병변, 기타",[12월] 특수체육,13:00 ~ 20:00,"월,화,수,목,금,토","송효준,,오지웅,,김인혜",2020.12.01 ~ 2020.12.10,미지원,"장애인용 엘리베이터,주출입구 단차없음","80,000",126.929153140173,37.3877163270127,정좌표
414,바트리움운동케어,배규병,053-965-9899,대구광역시 동구 이노밸리로36길 13 401/402 바트리움운동케어(각산동),2명,90 ㎡,헬스,"지체, 시각, 청각/언어, 지적/자폐, 뇌병변, 기타",[12월] 장애인전문운동케어,10:00 ~ 21:00,"월,화,수,목,금,토","박철호,,배규병",2020.12.01 ~ 2020.12.10,미지원,"장애인 화장실,장애인용 엘리베이터,장애인전용 주차구역","80,000",128.715318051134,35.8777561814684,정좌표
415,박미자심리운동발달센터,박미자,02-990-6880,경상남도 통영시 명정고개길 166 박미자심리운동발달센터(명정동),2명,94 ㎡,댄스,"지체, 시각, 청각/언어, 지적/자폐, 뇌병변, 기타",[12월] 댄스,10:00 ~ 11:00,월,박지우,2020.12.01 ~ 2020.12.10,지원,"장애인 화장실,주출입구 단차없음","80,000",128.410450310244,34.849899862766,정좌표
416,박사 경희대 태권도,전기록,02-2065-5599,서울특별시 강서구 까치산로10길 73 2층(화곡동),2명,32 ㎡,태권도,"지체, 지적/자폐, 기타",[12월] 태권도(특수체육),13:30 ~ 22:30,"월,수,금",전기록.윤지혜,2020.12.01 ~ 2020.12.10,지원,"장애인전용 주차구역,시각장애인 편의서비스","80,000",126.847844077945,37.5408712937598,정좌표
417,반송월드태권도,고용석,051-543-5658,부산시 해운대구 신반송로 171 삼한그린타운 상가동 205,3명,60 ㎡,태권도,지적/자폐,[12월] 태권도,14:30 ~ 21:00,"월,화,수,목,금",고용석,2020.12.01 ~ 2020.12.10,지원,,"120,000",129.160232441444,35.2279506837979,정좌표
418,밥스포츠스쿨,남진수,053-635-6231,대구광역시 달서구 월배로 219 센트로타워 지하1층(상인동),1명,400 ㎡,기타종목,기타,[12월] 밥스포츠 정규프로그램/축구/농구/야구/인라인,15:00 ~ 21:00,"월,화,수,목,금,토","신종호,배준영,정호영",2020.12.01 ~ 2020.12.10,미지원,"장애인 화장실,장애인용 엘리베이터,장애인전용 주차구역,주출입구 단차없음","80,000",128.537082254374,35.8191055051829,정좌표
419,백두산K타이거즈태권도,김성식,02-6221-3030,서울특별시 강북구 한천로105길 33 유치원상가 2층 백두산K타이거즈태권도(번동),2명,310 ㎡,태권도,"청각/언어, 지적/자폐",[12월] 백두산태권도체육관,02:30 ~ 09:40,"월,화,수,목,금",김성식,2020.12.01 ~ 2020.12.10,지원,장애인전용 주차구역,"80,000",127.045851158579,37.6255283433051,정좌표
420,백두태권도,김정영,031-944-6222,"경기도 파주시 마음밭길 114 싱기3층(금촌동, 대방노블랜드아파트)",1명,125 ㎡,태권도,"지체, 지적/자폐",[12월] 대근육 단련 ,17:00 ~ 18:00,"월,화,수,목,금",김정영,2020.12.01 ~ 2020.12.10,지원,,"120,000",126.769987283517,37.7698702360134,정좌표
421,백마태권도,박창호,010-2010-0688,충청남도 금산군 금산읍 남사직3길 8 1층(고센하우스),1명,85 ㎡,태권도,"지체, 지적/자폐, 기타",[12월] 태권도 교육,15:00 ~ 17:00,"토,일",박창호,2020.12.01 ~ 2020.12.10,미지원,,"80,000",127.478457759587,36.1064614121009,정좌표
422,백석대학교 산학협력단,한정수,02-550-2973,충남 천안시 동남구 문암로 76 백석체육관 320호,5명,200 ㎡,기타종목,지적/자폐,[12월] 발달장애인 뉴스포츠 체육교실,17:00 ~ 17:50,금,한수현,2020.12.01 ~ 2020.12.10,미지원,"장애인 화장실,장애인용 엘리베이터,장애인전용 주차구역,주출입구 단차없음","70,000",127.181399864308,36.8416631486923,인근좌표
423,백석대학교 산학협력단,한정수,02-550-2973,충남 천안시 동남구 문암로 76 백석체육관 320호,5명,200 ㎡,기타종목,지체,[12월] 여성 지체장애인 코어운동,14:00 ~ 14:50,목,한수현,2020.12.01 ~ 2020.12.10,미지원,"장애인 화장실,장애인용 엘리베이터,장애인전용 주차구역,주출입구 단차없음","70,000",127.181399864308,36.8416631486923,인근좌표
424,백양생활체육관,,051-309-4129,"부산광역시 북구 은행나무로 26 (만덕동, 북구디지털도서관) 백양생활체육관",명, ㎡,농구,"지체, 청각/언어",[12월] 농구, ~ ,"화,목",,2020.12.01 ~ 2020.12.10,미지원,,"80,000",129.037797243606,35.2072435594724,정좌표
425,백파태권도,한재웅,053-358-6362,대구광역시 서구 달서천로83길 23 2층 백파태권도(원대동3가),2명,140 ㎡,태권도,"지적/자폐, 기타",[12월] 태권도 수련,14:00 ~ 22:00,"월,화,수,목,금",한재웅,2020.12.01 ~ 2020.12.10,지원,,"80,000",128.578351072602,35.8837261436731,정좌표
426,범일태권도체육관,서용섭,02-784-5070,"대구광역시 수성구 범안로 40 대구수성구범안로40 208동201호(범물동, 범물청아타운)",1명,117 ㎡,태권도,지적/자폐,[12월] 태권도. 줄넘기,02:30 ~ 06:30,"월,화,수,목,금",서용섭,2020.12.01 ~ 2020.12.10,지원,,"80,000",128.640383246219,35.8168028242028,정좌표
427,베스트헬스,한영미,055-551-7522,"경상남도 창원시 진해구 자은로88번길 31 상가2층베스트헬스(자은동, 로즈빌아파트)",1명,300 ㎡,헬스,기타,[12월] 헬스,06:00 ~ 23:00,"월,화,수,목,금,토",한영미,2020.12.01 ~ 2020.12.10,미지원,"장애인전용 주차구역,주출입구 단차없음","80,000",128.710914378285,35.1499682701696,정좌표
428,별내커뮤니티센터,류성택,031-560-1301,경기도 남양주시 다산지금로 91 남양주체육문화센터(이패동),1명,4442 ㎡,수영,지적/자폐,[12월] 어울림B(청소년),18:00 ~ 18:50,"화,목",안대준,2020.12.01 ~ 2020.12.10,미지원,"장애인 화장실,장애인용 엘리베이터,장애인전용 주차구역,주출입구 단차없음,시각장애인 편의서비스","30,500",127.175810450649,37.6055031059771,정좌표
